"관리기관명",소재지도로명주소,소재지지번주소,설치목적구분,카메라대수,카메라화소수,촬영방면정보,보관일수,설치년월,관리기관전화번호,위도,경도,데이터기준일자
"서울특별시 중구",서울특별시 중구 손기정로 101 (만리동2가),서울특별시 중구 만리동1가 57-7,생활방범,1,200,손기정체육공원 관리사무소앞,30,2018-02,02-3396-4744,37.55523900,126.96457200,2019-05-28
"서울특별시 중구",서울특별시 중구 손기정로 101 (만리동2가),서울특별시 중구 만리동2가 6-1,생활방범,1,130,손기정체육공원 체육생활관,30,2012-07,02-3396-4744,37.55575800,126.96408300,2019-05-28
"서울특별시 중구",서울특별시 중구 손기정로 101 (만리동2가),서울특별시 중구 만리동2가 6-1,생활방범,1,200,손기정체육공원 정문출입구,30,2018-02,02-3396-4744,37.55531600,126.96439500,2019-05-28
"서울특별시 중구",서울특별시 중구 손기정로 101 (만리동2가),서울특별시 중구 만리동2가 6-1,생활방범,1,130,손기정체육공원 후문출입구,30,2012-07,02-3396-4744,37.55672400,126.96631800,2019-05-28
"서울특별시 중구",서울특별시 중구 매봉18길 79 (금호동2가),서울특별시 중구 약수동 333-771,생활방범,1,200,응봉근린공원 도로변 화장실,30,2017-04,02-3396-4744,37.55453372,127.01698959,2019-05-28
"서울특별시 중구",서울특별시 중구 칠패로 27 (순화동),서울특별시 중구 순화동 9-5,생활방범,1,200,순화공원 광장뒤,30,2013-05,02-3396-4744,37.56028600,126.97165100,2019-05-28
"서울특별시 중구",서울특별시 중구 칠패로 27 (순화동),서울특별시 중구 순화동 9-5,생활방범,1,200,순화공원 펜스옆,30,2014-01,02-3396-4744,37.55995800,126.97156200,2019-05-28
"서울특별시 중구",서울특별시 중구 매봉18길 11 (금호동3가),서울특별시 중구 약수동 산55,생활방범,1,200,응봉공원,30,2017-09,02-3396-4744,37.55037800,127.01365300,2019-05-28
"서울특별시 중구",서울특별시 중구 매봉18길 11 (금호동3가),서울특별시 중구 약수동 844-10,생활방범,1,200,응봉공원,30,2017-09,02-3396-4744,37.54879400,127.01039400,2019-05-28
"서울특별시 중구",서울특별시 중구 매봉18길 11 (금호동3가),서울특별시 중구 약수동 351-104,생활방범,1,200,응봉공원,30,2017-09,02-3396-4744,37.54499500,127.00817000,2019-05-28
"서울특별시 중구",서울특별시 중구 정동길 21-8,서울특별시 중구 정동 15-1,생활방범,2,200,정동근린공원,30,2014-01,02-3396-4744,37.56837700,126.97134100,2019-05-28
"서울특별시 중구",서울특별시 중구 정동길 21-8,서울특별시 중구 정동 15-1,생활방범,2,200,정동근린공원,30,2014-01,02-3396-4744,37.56792000,126.97164000,2019-05-28
"서울특별시 중구",서울특별시 중구 통일로 102 옆,서울특별시 중구 의주로1가 44-2,생활방범,2,200,의주로소공원,30,2014-01,02-3396-4744,37.56395500,126.96867900,2019-05-28
"서울특별시 중구",서울특별시 중구 중구 남대문로10길 29 옆,서울특별시 중구 삼각동 118,생활방범,2,200,한빛미디어파크,30,2018-02,02-3396-4744,37.56821300,126.98487700,2019-05-28
"서울특별시 중구",서울특별시 중구 을지로 3길 49,서울특별시 중구 다동 51-2,생활방범,2,200,다동소공원,30,2014-01,02-3396-4744,37.56816300,126.98083600,2019-05-28
"서울특별시 중구",서울특별시 중구 을지로 3길 49,서울특별시 중구 다동 51-2,생활방범,2,200,다동소공원 화장실 앞,30,2014-01,02-3396-4744,37.56807000,126.98065300,2019-05-28
"서울특별시 중구",서울특별시 중구 퇴계로 303-9 옆,서울특별시 중구 광희동 1가 238,생활방범,2,200,쌍림어린이공원,30,2018-02,02-3396-4744,37.56428700,127.00500300,2019-05-28
"서울특별시 중구",서울특별시 중구 퇴계로 45길 32-12,서울특별시 중구 충무로5가 21,생활방범,2,200,묵정어린이공원,30,2018-05,02-3396-4744,37.56389000,127.00015300,2019-05-28
"서울특별시 중구",서울특별시 중구 퇴계로 45길 32-12,서울특별시 중구 충무로5가 21,생활방범,2,200,묵정어린이공원,30,2014-01,02-3396-4744,37.56378100,126.99944800,2019-05-28
"서울특별시 중구",서울특별시 중구,서울특별시 중구 정동 34-31,생활방범,2,200,배재공원,30,2014-01,02-3396-4744,37.56422800,126.97274010,2019-05-28
"서울특별시 중구",서울특별시 중구 동호로 11차길 1 옆,서울특별시 중구 다산동 432-517,생활방범,2,200,충현어린이공원,30,2014-01,02-3396-4744,37.55209900,127.00508100,2019-05-28
"서울특별시 중구",서울특별시 중구 동호로 11차길 1 옆,서울특별시 중구 다산동 432-517,생활방범,2,200,충현어린이공원,30,2014-01,02-3396-4744,37.55216500,127.00488300,2019-05-28
"서울특별시 중구",서울특별시 중구 동호로 11자길 19 옆,서울특별시 중구 다산동 432-1971,생활방범,2,200,늘푸른어린이공원,30,2014-01,02-3396-4744,37.55116200,127.00573200,2019-05-28
"서울특별시 중구",서울특별시 중구 다산로14길 47,서울특별시 중구 청구동 340-15,생활방범,2,200,약수어린이공원,30,2014-01,02-3396-4744,37.55580300,127.01400000,2019-05-28
"서울특별시 중구",서울특별시 중구 다산로14길 47,서울특별시 중구 청구동 340-15,생활방범,2,200,약수어린이공원,30,2014-01,02-3396-4744,37.55557600,127.01379300,2019-05-28
"서울특별시 중구",서울특별시 중구 난계로 6길 8,서울특별시 중구 신당5동 산12-75,생활방범,2,200,무학봉근린공원,30,2014-01,02-3396-4744,37.56248600,127.02452200,2019-05-28
"서울특별시 중구",서울특별시 중구 난계로 6길 8,서울특별시 중구 신당5동 산12-75,생활방범,2,200,무학봉근린공원,30,2014-01,02-3396-4744,37.56254600,127.02495700,2019-05-28
"서울특별시 중구",서울특별시 중구 난계로 6길 8,서울특별시 중구 신당5동 산12-75,생활방범,2,200,무학봉근린공원,30,2018-02,02-3396-4744,37.56291300,127.02505100,2019-05-28
"서울특별시 중구",서울특별시 중구 다산로42나길 12 앞,서울특별시 중구 다산동 122-10,생활방범,2,200,다산어린이공원,30,2014-01,02-3396-4744,37.56366200,127.01842400,2019-05-28
"서울특별시 중구",서울특별시 중구 다산로42나길 12 앞,서울특별시 중구 다산동 122-10,생활방범,2,200,다산어린이공원,30,2018-02,02-3396-4744,37.56389400,127.01892200,2019-05-28
"서울특별시 중구",서울특별시 중구 다산로33가길 17 앞,서울특별시 중구 신당동 241-26,생활방범,2,200,신당동떡볶이마을마당,30,2014-01,02-3396-4744,37.56338300,127.01427600,2019-05-28
"서울특별시 중구",서울특별시 중구 동호로 8나길 15,서울특별시 중구 약수동 349-214,생활방범,2,200,약수동마을마당,30,2014-01,02-3396-4744,37.55281900,127.01260400,2019-05-28
"서울특별시 중구",서울특별시 중구 다산로 24길 23 맞은편,서울특별시 중구 청구동 333-370,생활방범,2,200,청구동마을마당,30,2014-01,02-3396-4744,37.55612900,127.01635800,2019-05-28
"서울특별시 중구",서울특별시 중구 다산로 24길 23 맞은편,서울특별시 중구 청구동 333-370,생활방범,2,200,청구동마을마당,30,2018-04,02-3396-4744,37.55585900,127.01629400,2019-05-28
"서울특별시 중구",서울특별시 중구 퇴계로 36가길 60 앞,서울특별시 중구 필동 2가 111-2,생활방범,2,200,필동마을마당,30,2014-01,02-3396-4744,37.55782300,126.99539400,2019-05-28
"서울특별시 중구",서울특별시 중구 동호로11차길 1 옆,서울특별시 중구 다산동 432-813,생활방범,2,200,충현마을마당,30,2018-02,02-3396-4744,37.55257900,127.00579700,2019-05-28
"서울특별시 중구",서울특별시 중구 동호로 15길 60 옆,서울특별시 중구 다산동 432-1584,생활방범,2,200,다산동마을마당,30,2014-01,02-3396-4744,37.55427900,127.00859300,2019-05-28
"서울특별시 중구",서울특별시 중구 서소문로2길 46 위,서울특별시 중구 중림동 1046,생활방범,2,200,충정녹지대,30,2014-01,02-3396-4744,37.55719100,126.96324900,2019-05-28
"서울특별시 중구",서울특별시 중구 청구로1길 23,서울특별시 중구 신당동 843,생활방범,2,200,용봉근린공원,30,2014-01,02-3396-4744,37.55757200,127.01700500,2019-05-28
"서울특별시 중구",서울특별시 중구 다산로36가길26-14,서울특별시 중구 신당5동57-295,생활방범,3,200,꿈누리어린이공원,30,2014-11,02-3396-4744,37.5605853,127.0206778,2019-05-28
"서울특별시 중구",서울특별시 중구 다산로36길64 114동뒤,서울특별시 중구 동화동45-42,생활방범,3,200,동화어린이공원,30,2014-11,02-3396-4744,37.56017400,127.01825600,2019-05-28
"서울특별시 중구",서울특별시 중구 다산로36길64 114동뒤,서울특별시 중구 동화동45-42,생활방범,3,200,동화어린이공원,30,2018-05,02-3396-4744,37.56005800,127.01815700,2019-05-28
"서울특별시 중구",서울특별시 중구 동호로5길19,서울특별시 중구 약수동309-262,생활방범,3,200,금호터널 쉼터,30,2014-11,02-3396-4744,37.55149860,127.01335120,2019-05-28
"서울특별시 중구",서울특별시 중구 다산로48길33,서울특별시 중구 황학동 755,생활방범,5,200,황학어린이공원1,30,2015-12,02-3396-4744,37.5679118,127.01812100,2019-05-28
"서울특별시 중구",서울특별시 중구 다산로48길33,서울특별시 중구 황학동 755,생활방범,3,200,황학어린이공원2,30,2015-12,02-3396-4744,37.56743900,127.01797100,2019-05-28
"서울특별시 중구",서울특별시 중구 신당동294-40,서울특별시 중구 신당동294-40,생활방범,3,200,청구역 쉼터,30,2015-12,02-3396-4744,37.55991400,127.01395600,2019-05-28
"서울특별시 중구",서울특별시 중구 태평로1가2-2,서울특별시 중구 태평로1가2-2,생활방범,3,200,무교소공원,30,2015-12,02-3396-4744,37.56895300,126.97734400,2019-05-28
"서울특별시 중구",서울특별시 중구 신당동296-15,서울특별시 중구 신당동296-15,생활방범,2,130,신당동마을마당,30,2012-07,02-3396-4744,37.56056400,127.01346000,2019-05-28
"서울특별시 중구",서울특별시 중구 서소문로89-31,서울특별시 중구 순화동 3-12,생활방범,3,200,순화어린이공원,30,2016-07,02-3396-4744,37.56352600,126.97126440,2019-05-28
"서울특별시 중구",서울특별시 중구 서소문로89-31,서울특별시 중구 순화동 3-12,생활방범,3,200,순화어린이공원,30,2016-07,02-3396-4744,37.56342200,126.97131500,2019-05-28
"서울특별시 중구",서울특별시 중구 퇴계로 36가길 60 앞,서울특별시 중구 필동 2가 111-2,생활방범,2,200,필동마을마당 엘리베이터 내,30,2016-06,02-3396-4744,37.55794900,126.99547300,2019-05-28
"서울특별시 중구",서울특별시 중구 삼일대로 340,서울특별시 중구 저동1가 1-14,생활방범,3,200,남대문세무서 앞 저동어린이공원,30,2016-12,02-3396-4744,37.56464200,126.98848800,2019-05-28
"서울특별시 중구",서울특별시 중구 명동길 91-1,서울특별시 중구 저동1가 90-10,생활방범,4,200,명동문화공원,30,2016-12,02-3396-4744,37.56471800,126.98722600,2019-05-28
"서울특별시 중구",서울특별시 중구 명동길 91-1,서울특별시 중구 저동1가 90-10,생활방범,4,200,명동문화공원,30,2016-12,02-3396-4744,37.56479600,126.98722600,2019-05-28
"서울특별시 중구",서울특별시 중구 명동길 91-1,서울특별시 중구 저동1가 90-10,생활방범,4,200,명동문화공원,30,2016-12,02-3396-4744,37.56479500,126.98711700,2019-05-28
"서울특별시 중구",서울특별시 중구 명동길 91-1,서울특별시 중구 저동1가 90-10,생활방범,4,200,명동문화공원,30,2016-12,02-3396-4744,37.56469500,126.98710300,2019-05-28
"서울특별시 중구",서울특별시 중구 다동길13,서울특별시 중구 다동 45-6,생활방범,4,200,다동소공원,30,2017-07,02-3396-4744,37.56798600,126.98042100,2019-05-28
"서울특별시 중구",서울특별시 중구 만리재로 21길 9,서울특별시 중구 만리동2가 218-26,생활방범,3,200,만리재 공원,30,2017-09,02-3396-4744,37.55260900,126.96287100,2019-05-28
"서울특별시 중구",서울특별시 중구 만리재로 21길 9,서울특별시 중구 만리동2가 218-26,생활방범,3,200,만리재 공원,30,2017-09,02-3396-4744,37.55257300,126.96283600,2019-05-28
"서울특별시 중구",서울특별시 중구,서울특별시 중구 신당동 837-4,생활방범,1,200,대현산배수지 공원,30,2018-09,02-3396-4744,37.55950000,127.02060000,2019-05-28
"서울특별시 중구",서울특별시 중구,서울특별시 중구 신당동 837-4,생활방범,3,200,대현산배수지 공원,30,2018-09,02-3396-4744,37.55930000,127.02080000,2019-05-28
"서울특별시 중구",서울특별시 중구,서울특별시 중구 신당동 837-4,생활방범,2,200,대현산배수지 공원,30,2018-09,02-3396-4744,37.55925000,127.02090000,2019-05-28
"서울특별시 중구",서울특별시 중구 칠패로 5,서울특별시 중구 의주로2가 16-4,생활방범,2,200,서소문역사공원,30,2019-04,02-3396-4744,37.56133200,126.96841400,2019-05-28
"서울특별시 중구",서울특별시 중구 칠패로 5,서울특별시 중구 의주로2가 16-4,생활방범,1,200,서소문역사공원,30,2019-04,02-3396-4744,37.56082500,126.96862700,2019-05-28
"서울특별시 중구",서울특별시 중구 칠패로 5,서울특별시 중구 의주로2가 16-4,생활방범,2,200,서소문역사공원,30,2019-04,02-3396-4744,37.56076000,126.96894800,2019-05-28
"서울특별시 중구",서울특별시 중구 칠패로 5,서울특별시 중구 의주로2가 16-4,생활방범,2,200,서소문역사공원,30,2019-04,02-3396-4744,37.56000600,126.96934200,2019-05-28
"서울특별시 중구",서울특별시 중구 칠패로 5,서울특별시 중구 의주로2가 16-4,생활방범,2,200,서소문역사공원,30,2019-04,02-3396-4744,37.55989400,126.97028300,2019-05-28
"서울특별시 중구",서울특별시 중구 칠패로 5,서울특별시 중구 의주로2가 16-4,생활방범,2,200,서소문역사공원,30,2019-04,02-3396-4744,37.56020700,126.97026800,2019-05-28
"서울특별시 중구",서울특별시 중구 칠패로 5,서울특별시 중구 의주로2가 16-4,생활방범,1,200,서소문역사공원,30,2019-04,02-3396-4744,37.56040900,126.96988900,2019-05-28
"서울특별시 중구",서울특별시 중구 칠패로 5,서울특별시 중구 의주로2가 16-4,생활방범,2,200,서소문역사공원,30,2019-04,02-3396-4744,37.56073300,126.96968000,2019-05-28
"서울특별시 중구",서울특별시 중구 칠패로 5,서울특별시 중구 의주로2가 16-4,생활방범,2,200,서소문역사공원,30,2019-04,02-3396-4744,37.56094900,126.96955600,2019-05-28
"서울특별시 중구",서울특별시 중구 남대문로1길 16 (북창동),서울특별시 중구 북창동 118,생활방범,1,200,나이아가라 주점 삼거리,30,2015-12,02-3396-4744,37.56181500,126.97747900,2019-05-28
"서울특별시 중구",서울특별시 중구 을지로 35 (을지로1가),서울특별시 중구 을지로1가 101-1,생활방범,1,200,하나은행 본점 뒤,30,2016-12,02-3396-4744,37.56667013,126.98155224,2019-05-28
"서울특별시 중구",서울특별시 중구 소공로 109 (소공동),서울특별시 중구 소공동 110-1,생활방범,1,200,"한화금융프라자 주차장입구, 프라자H뒤",30,2017-09,02-3396-4744,37.56387009,126.97794500,2019-05-28
"서울특별시 중구",서울특별시 중구 다동길 43 (다동),서울특별시 중구 다동 70,생활방범,1,200,다동 사거리,30,2016-12,02-3396-4744,37.56798100,126.98136449,2019-05-28
"서울특별시 중구",서울특별시 중구 세종대로 74 (태평로2가),서울특별시 중구 태평로2가 69-5,생활방범,1,200,"삼정빌딩 앞, 버스정류장",30,2016-12,02-3396-4744,37.56268583,126.97663800,2019-05-28
"서울특별시 중구",서울특별시 중구 남대문로9길 39 (을지로1가),서울특별시 중구 을지로1가 42,생활방범,1,200,부림빌딩 앞,30,2017-09,02-3396-4744,37.56679100,126.97989800,2019-05-28
"서울특별시 중구",서울특별시 중구 무교로 32 (무교동),서울특별시 중구 무교동 1,생활방범,1,200,"모전교 앞, 텍사스빠",30,2017-09,02-3396-4744,37.56888118,126.97943200,2019-05-28
"서울특별시 중구",서울특별시 중구 남대문로1길 42 (북창동),서울특별시 중구 북창동 18-9,생활방범,1,200,BOOMERS COFFEE,30,2015-12,02-3396-4744,37.56293459,126.97733800,2019-05-28
"서울특별시 중구",서울특별시 중구 다동길 27 (다동),서울특별시 중구 다동 53-8,생활방범,1,200,행복한 전집 앞,30,2017-09,02-3396-4744,37.56780543,126.98092461,2019-05-28
"서울특별시 중구",서울특별시 중구 무교로 6 (을지로1가),서울특별시 중구 을지로1가 16,생활방범,1,200,BNK 부산은행 앞,30,2014-11,02-3396-4744,37.56616800,126.97925700,2019-05-28
"서울특별시 중구",서울특별시 중구 세종대로 136 (무교동),서울특별시 중구 태평로1가 84,생활방범,1,130,"파이낸스빌딩 앞, 관광안내센터",30,2012-06,02-3396-4744,37.56900000,126.97741500,2019-05-28
"서울특별시 중구",서울특별시 중구 남대문로 73 (소공동),서울특별시 중구 소공동 7,생활방범,1,200,롯데에비뉴엘 입구,30,2014-11,02-3396-4744,37.56380205,126.98188215,2019-05-28
"서울특별시 중구",서울특별시 중구 남대문로 39 (남대문로3가),서울특별시 중구 남대문로3가 110,생활방범,1,200,북창치안센터 앞,30,2016-12,02-3396-4744,37.56137823,126.97912500,2019-05-28
"서울특별시 중구",서울특별시 중구 남대문로9길 6 (다동),서울특별시 중구 다동 155,생활방범,3,200,YG타위 뒤,30,2018-10,02-3396-4744,37.56730794,126.98054373,2019-05-28
"서울특별시 중구",서울특별시 중구 남대문로25-13,서울특별시 중구 북창동 110-2,생활방범,5,200,RED PANDA 앞,30,2015-12,02-3396-4744,37.56186100,126.97825700,2019-05-28
"서울특별시 중구",서울특별시 중구 청파로 426 (봉래동2가),서울특별시 중구 봉래동2가 122,생활방범,1,200,1호선 서울역2번출구 앞,30,2017-08,02-3396-4744,37.55639200,126.97203308,2019-05-28
"서울특별시 중구",서울특별시 중구 퇴계로 24 (남대문로5가),서울특별시 중구 남대문로5가 267-4,생활방범,1,200,"SK남산그린빌딩 앞, 육교앞",30,2016-12,02-3396-4744,37.55708959,126.97578013,2019-05-28
"서울특별시 중구",서울특별시 중구 세종대로2길 7 (남대문로5가),서울특별시 중구 남대문로5가 12-16,생활방범,1,200,"원당감자탕 삼거리, 연세빌딩뒤",30,2016-12,02-3396-4744,37.55756200,126.97398600,2019-05-28
"서울특별시 중구",서울특별시 중구 청파로 426 (봉래동2가),서울특별시 중구 봉래동2가 122,생활방범,1,200,서울역 구역사 앞 광장,30,2014-11,02-3396-4744,37.55566900,126.97200000,2019-05-28
"서울특별시 중구",서울특별시 중구 통일로 21 (봉래동2가),서울특별시 중구 봉래동2가 123번지,생활방범,2,200,서울 역전우체국 앞,30,2014-11,02-3396-4744,37.55748933,126.97153500,2019-05-28
"서울특별시 중구",서울특별시 중구 세종대로 30 (남대문로5가),서울특별시 중구 남대문로5가 21-1,생활방범,1,200,"레벤호프 옆, 남대문소공원 옆",30,2016-12,02-3396-4744,37.55897135,126.97525173,2019-05-28
"서울특별시 중구",서울특별시 중구 칠패로 26 (순화동),서울특별시 중구 순화동 207-25,생활방범,4,200,"염천교 사거리, 경일빌딩 앞",30,2017-09,02-3396-4744,37.55949228,126.97174609,2019-05-28
"서울특별시 중구",서울특별시 중구 세종대로 12 (남대문로5가),서울특별시 중구 남대문로5가 12-8,생활방범,1,200,"우신약국 앞, 1호선서울역4번출구",30,2017-09,02-3396-4744,37.55784000,126.97351500,2019-05-28
"서울특별시 중구",서울특별시 중구 소월로2길 30,서울특별시 중구 남대문로5가 827,생활방범,4,200,남산트라팰리스 앞 삼거리 횡단보도,30,2018-10,02-3396-4744,37.55419500,126.97647700,2019-05-28
"서울특별시 중구",서울특별시 중구 세종대로5길 39 (봉래동1가),서울특별시 중구 봉래동1가 126-1,생활방범,3,200,대원강업 정문,30,2018-10,02-3396-4744,37.55862000,126.97274923,2019-05-28
"서울특별시 중구",서울특별시 중구 한강대로 416 서울역지하보도,서울특별시 중구 봉래동2가 84-11,생활방범,5,200,"서울역지하보도1, 서울스퀘어",30,2014-07,02-3396-4744,37.55623600,126.97327900,2019-05-28
"서울특별시 중구",서울특별시 중구 명동8길 27 (명동2가),서울특별시 중구 명동2가 31-1,생활방범,1,200,유투존 뒷편,30,2016-12,02-3396-4744,37.56274961,126.98536366,2019-05-28
"서울특별시 중구",서울특별시 중구 명동10길 52 (충무로2가),서울특별시 중구 충무로2가 65-4,생활방범,1,200,신한은행 명동역지점 앞,30,2017-09,02-3396-4744,37.56160999,126.98574722,2019-05-28
"서울특별시 중구",서울특별시 중구 퇴계로 115 (충무로1가),서울특별시 중구 충무로1가 64,생활방범,4,200,명동역 6번출구 앞,30,2017-09,02-3396-4744,37.56094236,126.98506325,2019-05-28
"서울특별시 중구",서울특별시 중구 명동길 20 (명동2가),서울특별시 중구 명동2가 55-1,생활방범,1,200,명동CGV 동쪽 사거리,30,2016-12,02-3396-4744,37.56368400,126.98347800,2019-05-28
"서울특별시 중구",서울특별시 중구 퇴계로20나길 15 (남산동2가),서울특별시 중구 남산동2가 27-2,생활방범,1,200,남산퍼시픽아파트 삼거리,30,2015-12,02-3396-4744,37.55845467,126.98543876,2019-05-28
"서울특별시 중구",서울특별시 중구 명동8나길 21 (충무로1가),서울특별시 중구 충무로1가 24-11,생활방범,1,200,스카이파크호텔 앞,30,2016-12,02-3396-4744,37.56141863,126.98410839,2019-05-28
"서울특별시 중구",서울특별시 중구 소공로 112(환구단1),서울특별시 중구 소공동 87-14,시설물관리,1,200,환구단1,30,2013-02,02-3396-4744,37.56523200,126.97958600,2019-05-28
"서울특별시 중구",서울특별시 중구 명동길 74 (명동2가),서울특별시 중구 명동2가 1-1,생활방범,1,200,명동성당앞,30,2018-03,02-3396-4744,37.56409545,126.98627293,2019-05-28
"서울특별시 중구",서울특별시 중구 명동길 93 (저동1가),서울특별시 중구 저동1가 43-3,생활방범,1,200,카톨릭회관 옆,30,2017-09,02-3396-4744,37.56476200,126.98738873,2019-05-28
"서울특별시 중구",서울특별시 중구 소공로6길 25 (남산동1가),서울특별시 중구 남산동1가 15,생활방범,1,200,서울서비스 사거리,30,2015-12,02-3396-4744,37.55854500,126.98441952,2019-05-28
"서울특별시 중구",서울특별시 중구 퇴계로18길 5 (남산동2가),서울특별시 중구 남산동2가 6-1,생활방범,1,200,동보성 앞 삼거리,30,2018-02,02-3396-4744,37.56065700,126.98554337,2019-05-28
"서울특별시 중구",서울특별시 중구 소공로6가길 13 (남산동1가),서울특별시 중구 남산동1가 21-4,생활방범,1,200,"해피마트 좌전방 50미터, 주택가",30,2017-09,02-3396-4744,37.55789700,126.98409900,2019-05-28
"서울특별시 중구",서울특별시 중구 퇴계로20길 56,서울특별시 중구 남산동2가 26-8,생활방범,1,200,숭의여자대학별관 뒤 골목길,30,2016-12,02-3396-4744,37.55762900,126.98666300,2019-05-28
"서울특별시 중구",서울특별시 중구 퇴계로22길 17 (남산동2가),서울특별시 중구 남산동2가 2,생활방범,1,200,남산초교 정문,30,2017-09,02-3396-4744,37.56031938,126.98647678,2019-05-28
"서울특별시 중구",서울특별시 중구 소공로6나길 6 (회현동2가),서울특별시 중구 회현동2가 42-9,생활방범,1,200,해피마트 우전방 20미터,30,2016-12,02-3396-4744,37.55820377,126.98367387,2019-05-28
"서울특별시 중구",서울특별시 중구 퇴계로18길 70 (남산동1가),서울특별시 중구 남산동1가 21-1,생활방범,1,200,소망여행사 옆,30,2016-12,02-3396-4744,37.55784230,126.98444366,2019-05-28
"서울특별시 중구",서울특별시 중구 명동길 43 (명동1가),서울특별시 중구 명동1가 53-1,생활방범,1,200,신한은행 명동중앙지점 앞,30,2017-09,02-3396-4744,37.56381481,126.98490232,2019-05-28
"서울특별시 중구",서울특별시 중구 퇴계로20길 19 (남산동2가),서울특별시 중구 남산동2가 15-10,생활방범,1,200,"마산아구찜 뒷골목, 소화함 옆",30,2017-09,02-3396-4744,37.55930942,126.98604494,2019-05-28
"서울특별시 중구",서울특별시 중구 소공로 112(환구단2),서울특별시 중구 소공동 87-14,시설물관리,1,200,환구단2,30,2013-02,02-3396-4744,37.56510700,126.98006400,2019-05-28
"서울특별시 중구",서울특별시 중구 명동길 42 (명동2가),서울특별시 중구 명동2가 33-2,생활방범,1,200,우리은행 명동지점 앞,30,2017-09,02-3396-4744,37.56361708,126.98448926,2019-05-28
"서울특별시 중구",서울특별시 중구 명동13길 14 (저동1가),서울특별시 중구 저동1가 79-5,생활방범,1,200,아바이순대 앞,30,2017-09,02-3396-4744,37.56479707,126.98642600,2019-05-28
"서울특별시 중구",서울특별시 중구 소공로4길 21 (회현동2가),서울특별시 중구 회현동2가 48-19,생활방범,1,200,한국맹인교회 앞,30,2017-09,02-3396-4744,37.55724906,126.98354900,2019-05-28
"서울특별시 중구",서울특별시 중구 퇴계로16길 14-7,서울특별시 중구 회현동3가 4-7,생활방범,1,200,충무교회 뒤쪽,30,2017-09,02-3396-4744,37.56016300,126.98423445,2019-05-28
"서울특별시 중구",서울특별시 중구 퇴계로20가길 16 (남산동2가),서울특별시 중구 남산동2가 15-1,생활방범,2,200,"남산초교 후문쪽, 좁은골목",30,2016-12,02-3396-4744,37.55958600,126.98638600,2019-05-28
"서울특별시 중구",서울특별시 중구 퇴계로20나길 15-20 (예장동),서울특별시 중구 예장동 8-85,생활방범,1,200,"숭의여대 별관 뒷골목, 카센터골목",30,2017-09,02-3396-4744,37.55764668,126.98585987,2019-05-28
"서울특별시 중구",서울특별시 중구 소공로 36 (회현동2가),서울특별시 중구 회현동2가 27,생활방범,1,200,삼양빌딩 앞,30,2016-12,02-3396-4744,37.55863540,126.98308900,2019-05-28
"서울특별시 중구",서울특별시 중구 퇴계로20길26-1,서울특별시 중구 남산동2가29-6,생활방범,4,200,대나무집,30,2015-12,02-3396-4744,37.55895300,126.98590200,2019-05-28
"서울특별시 중구",서울특별시 중구 남대문로 12 (남대문로4가),서울특별시 중구 남대문로4가 18,생활방범,1,200,"시장2번게이트, 기업은행앞",30,2013-02,02-3396-4744,37.56071500,126.97731435,2019-05-28
"서울특별시 중구",서울특별시 중구 남대문로 42 (충무로1가),서울특별시 중구 충무로1가 53,생활방범,1,200,제일은행 골목 인도,30,2017-09,02-3396-4744,37.56125917,126.98031500,2019-05-28
"서울특별시 중구",서울특별시 중구 소월로 3 (남창동),서울특별시 중구 남창동 51-1,생활방범,1,200,롯데손보주차장 입구,30,2017-09,02-3396-4744,37.55966451,126.97592500,2019-05-28
"서울특별시 중구",서울특별시 중구 퇴계로 39-2 (남창동),서울특별시 중구 남창동 47,생활방범,1,200,시장5번게이트,30,2014-11,02-3396-4744,37.55786143,126.97712392,2019-05-28
"서울특별시 중구",서울특별시 중구 남대문시장길 45-4 (남창동),서울특별시 중구 남창동 4-3,생활방범,1,200,시장3번게이트,30,2014-11,02-3396-4744,37.56091472,126.97816730,2019-05-28
"서울특별시 중구",서울특별시 중구 퇴계로 71 (회현동1가),서울특별시 중구 회현동1가 23-1,생활방범,1,200,"신세계 주차장 뒤 교통섬, 로그25앞",30,2017-09,02-3396-4744,37.55977720,126.97999388,2019-05-28
"서울특별시 중구",서울특별시 중구 남대문시장8길 2 (남창동),서울특별시 중구 남창동 31-1,생활방범,1,200,국민은행 삼거리,30,2016-12,02-3396-4744,37.56044483,126.97862595,2019-05-28
"서울특별시 중구",서울특별시 중구 퇴계로 37 (남창동),서울특별시 중구 남창동 281,생활방범,1,200,시장7번게이트,30,2016-12,02-3396-4744,37.55843766,126.97616637,2019-05-28
"서울특별시 중구",서울특별시 중구 소공로 112(환구단3),서울특별시 중구 소공동 87-14,시설물관리,1,200,환구단3,30,2013-02,02-3396-4744,37.56488800,126.97941700,2019-05-28
"서울특별시 중구",서울특별시 중구 남대문로 42 (충무로1가),서울특별시 중구 충무로1가 52,생활방범,1,200,"신세계분수대 인도, 회현지하상가입구",30,2017-09,02-3396-4744,37.56141500,126.98078700,2019-05-28
"서울특별시 중구",서울특별시 중구 남대문시장4길 29 (남창동),서울특별시 중구 남창동 49,생활방범,1,200,관광안내센터 앞,30,2016-12,02-3396-4744,37.55862477,126.97720000,2019-05-28
"서울특별시 중구",서울특별시 중구 남대문시장4길 28-16 (회현동1가),서울특별시 중구 남창동 51-1,생활방범,1,200,남대문파출소,30,2017-09,02-3396-4744,37.55894000,126.97647700,2019-05-28
"서울특별시 중구",서울특별시 중구 남대문시장8길 25 (남창동),서울특별시 중구 남창동 9-28,생활방범,1,200,시장4번게이트,30,2017-09,02-3396-4744,37.55913932,126.97869301,2019-05-28
"서울특별시 중구",서울특별시 중구 퇴계로 53 (남창동),서울특별시 중구 남창동 47-17,생활방범,1,200,시장6번게이트,30,2014-11,02-3396-4744,37.55866517,126.97814584,2019-05-28
"서울특별시 중구",서울특별시 중구 서소문로6길 9 (중림동),서울특별시 중구 중림동 565,생활방범,1,200,,30,2016-12,02-3396-4744,37.56006400,126.96609500,2019-05-28
"서울특별시 중구",서울특별시 중구 중림로4길46,서울특별시 중구 중림동392-8,생활방범,1,200,중림로4길46중간,30,2017-09,02-3396-4744,37.55690300,126.96455000,2019-05-28
"서울특별시 중구",서울특별시 중구 중림로4길 24 (중림동),서울특별시 중구 중림동 396-8,생활방범,1,200,중림 알뜰슈퍼 앞,30,2015-12,02-3396-4744,37.55815486,126.96427077,2019-05-28
"서울특별시 중구",서울특별시 중구 손기정로 101 (만리동2가),서울특별시 중구 만리동2가 6-1,생활방범,1,200,손기정 공원 정문,30,2017-09,02-3396-4744,37.55493400,126.96472200,2019-05-28
"서울특별시 중구","서울특별시 중구 중림로8길 10 (중림동, 용궁빌라)",서울특별시 중구 중림동 324-4,생활방범,1,200,용궁빌라 앞,30,2016-12,02-3396-4744,37.55753800,126.96714000,2019-05-28
"서울특별시 중구",서울특별시 중구 만리재로21길 9 (만리동2가),서울특별시 중구 만리동2가 218-26,생활방범,1,200,만리현교회 앞,30,2017-09,02-3396-4744,37.55268500,126.96334800,2019-05-28
"서울특별시 중구",서울특별시 중구 손기정로 73 (만리동2가),서울특별시 중구 만리동2가 2,생활방범,1,200,붕래초교 정문,30,2017-09,02-3396-4744,37.55571000,126.96346500,2019-05-28
"서울특별시 중구",서울특별시 중구 만리재로37길 68 (만리동1가),서울특별시 중구 만리동1가 56-30,생활방범,1,200,봉래초교 후문,30,2017-09,02-3396-4744,37.55663100,126.96511835,2019-05-28
"서울특별시 중구",서울특별시 중구 만리재로37길 30 (만리동1가),서울특별시 중구 만리동1가 54-5,생활방범,1,200,경기여상-손기정공원 후문,30,2017-09,02-3396-4744,37.55702792,126.96648500,2019-05-28
"서울특별시 중구",서울특별시 중구 만리재로35길 30 (만리동1가),서울특별시 중구 만리동1가 35-10,생활방범,4,200,부흥마트 앞,30,2016-12,02-3396-4744,37.55656226,126.96762800,2019-05-28
"서울특별시 중구",서울특별시 중구 중림로8길 28 (중림동),서울특별시 중구 중림동 324-9,생활방범,1,200,홍익빌라 옆,30,2016-12,02-3396-4744,37.55750634,126.96598500,2019-05-28
"서울특별시 중구",서울특별시 중구 청파로 441-2 (중림동),서울특별시 중구 중림동 61,생활방범,1,200,중림삼거리 - 교통섬,30,2017-09,02-3396-4744,37.55909893,126.96909875,2019-05-28
"서울특별시 중구",서울특별시 중구 중림로 51 (중림동),서울특별시 중구 중림동 129-23,생활방범,4,130,중림로터리 - 화단,30,2012-06,02-3396-4744,37.55751000,126.96808900,2019-05-28
"서울특별시 중구",서울특별시 중구 중림로2길 26 (중림동),서울특별시 중구 중림동 395-2,생활방범,1,200,궁전맨션 사거리,30,2017-09,02-3396-4744,37.55806981,126.96342051,2019-05-28
"서울특별시 중구",서울특별시 중구 중림로2길 16,서울특별시 중구 중림동 398-16,생활방범,2,200,통신주,30,2018-11,02-3396-4744,37.55850200,126.96347800,2019-05-28
"서울특별시 중구",서울특별시 중구 서소문로2길 18 (중림동),서울특별시 중구 중림동 399-2,생활방범,1,200,싱글하우스 삼거리,30,2016-12,02-3396-4744,37.55834197,126.96278751,2019-05-28
"서울특별시 중구",서울특별시 중구 만리재로37길 50 (만리동1가),서울특별시 중구 만리동1가 56-51,생활방범,1,200,델타하우스 앞,30,2016-12,02-3396-4744,37.55711298,126.96558400,2019-05-28
"서울특별시 중구",서울특별시 중구 만리재로37길 59-3,서울특별시 중구 만리동1가 56-20,생활방범,3,200,전신주 옆,30,2017-12,02-3396-4744,37.55681800,126.96562000,2019-05-28
"서울특별시 중구",서울특별시 중구 청파로103길 15 (중림동),서울특별시 중구 중림동 116,생활방범,1,200,장수오리식당 옆 사거리,30,2016-12,02-3396-4744,37.55844900,126.96859449,2019-05-28
"서울특별시 중구",서울특별시 중구 만리재로35길 12 (만리동1가),서울특별시 중구 만리동1가 62-12,생활방범,1,200,중림어린이집 앞,30,2015-12,02-3396-4744,37.55581200,126.96758400,2019-05-28
"서울특별시 중구",서울특별시 중구 중림로 2-1 (중림동),서울특별시 중구 중림동 397-2,생활방범,4,200,충정로역 5번출구,30,2018-04,02-3396-4744,37.55912400,126.96379700,2019-05-28
"서울특별시 중구",서울특별시 중구 서소문로2길 33-8 (중림동),서울특별시 중구 중림동 392-2,생활방범,1,200,삼거리,30,2017-09,02-3396-4744,37.55757500,126.96341000,2019-05-28
"서울특별시 중구",서울특별시 중구 서소문로2길 33,서울특별시 중구 중림동 395-7,생활방범,2,200,통신주,30,2018-11,02-3396-4744,37.55757100,126.96304300,2019-05-28
"서울특별시 중구",서울특별시 중구 만리재로 181 (만리동2가),서울특별시 중구 만리동2가 32,생활방범,4,200,삼성부동산 앞,30,2014-11,02-3396-4744,37.55449000,126.96626633,2019-05-28
"서울특별시 중구",서울특별시 중구 환일길 67-12 (만리동2가),서울특별시 중구 만리동2가 231-65,생활방범,1,200,환일고 운동장 아래골목,30,2017-09,02-3396-4744,37.55230000,126.96229398,2019-05-28
"서울특별시 중구",서울특별시 중구 서소문로6길 34 (중림동),서울특별시 중구 중림동 149,생활방범,1,130,성요셉아파트 입구,30,2011-09,02-3396-4744,37.55963400,126.96731508,2019-05-28
"서울특별시 중구",서울특별시 중구 중림로 11-2 (중림동),서울특별시 중구 중림동 184-1,생활방범,1,200,삼성사이버아파트 정문,30,2016-05,02-3396-4744,37.55905500,126.96499900,2019-05-28
"서울특별시 중구",서울특별시 중구 중림로4길 46 (중림동),서울특별시 중구 중림동 1044,생활방범,1,130,삼성 래미안아파트 정문인근,30,2012-06,02-3396-4744,37.55719200,126.96390599,2019-05-28
"서울특별시 중구",서울특별시 중구 청파로 464 (중림동),서울특별시 중구 중림동 352,생활방범,1,130,브라운스톤삼거리(서대문고가쪽),30,2012-06,02-3396-4744,37.56134900,126.96784300,2019-05-28
"서울특별시 중구",서울특별시 중구 중림로7길 10 (중림동),서울특별시 중구 중림동 149-57,어린이보호,1,130,가명유치원 앞,30,2012-09,02-3396-4744,37.55841200,126.96739200,2019-05-28
"서울특별시 중구",서울특별시 중구 퇴계로8길 80 (회현동1가),서울특별시 중구 회현동1가 100-239,생활방범,1,200,정화미용고 옆,30,2015-12,02-3396-4744,37.55624756,126.98032379,2019-05-28
"서울특별시 중구",서울특별시 중구 퇴계로6길 36 (남창동),서울특별시 중구 남창동 202,생활방범,3,200,일신교회 후문,30,2017-09,02-3396-4744,37.55671110,126.97866200,2019-05-28
"서울특별시 중구",서울특별시 중구 퇴계로6가길 24,서울특별시 중구 남창동 205-94,생활방범,2,200,담장 앞 통신주,30,2018-10,02-3396-4744,37.55637000,126.97840000,2019-05-28
"서울특별시 중구",서울특별시 중구 퇴계로12길 62-5 (회현동1가),서울특별시 중구 회현동1가 109,생활방범,2,200,경동빌딩 앞,30,2016-12,02-3396-4744,37.55689900,126.98159400,2019-05-28
"서울특별시 중구",서울특별시 중구 퇴계로10길 8 (회현동),서울특별시 중구 회현동1가 94-2,생활방범,1,200,SK리더스뷰 인도,30,2016-12,02-3396-4744,37.55901813,126.98020577,2019-05-28
"서울특별시 중구",서울특별시 중구 소공로3길 7 (회현동2가),서울특별시 중구 회현동2가 56,생활방범,1,200,신세계모텔 삼거리,30,2016-12,02-3396-4744,37.55761266,126.98248565,2019-05-28
"서울특별시 중구",서울특별시 중구 퇴계로 48-1 (남창동),서울특별시 중구 회현동1가 194-15,생활방범,1,200,인송빌딩 모퉁이,30,2016-12,02-3396-4744,37.55818600,126.97809219,2019-05-28
"서울특별시 중구",서울특별시 중구 퇴계로12가길 19 (회현동1가),서울특별시 중구 회현동1가 148,생활방범,1,200,회현어린이집 앞,30,2016-12,02-3396-4744,37.55612636,126.98110968,2019-05-28
"서울특별시 중구",서울특별시 중구 퇴계로8길 43 (회현동),서울특별시 중구 회현동 100-121,생활방범,1,200,회현동사무소 사거리,30,2015-12,02-3396-4744,37.55758600,126.97939575,2019-05-28
"서울특별시 중구",서울특별시 중구 퇴계로4길 52,서울특별시 중구 회현동1가 82-18,생활방범,2,200,통신주,30,2018-11,02-3396-4744,37.55765500,126.98011700,2019-05-28
"서울특별시 중구",서울특별시 중구 퇴계로4길 52-5,서울특별시 중구 회현동1가 82-8,생활방범,1,200,통신주,30,2018-11,02-3396-4744,37.55769300,126.98043800,2019-05-28
"서울특별시 중구",서울특별시 중구 퇴계로2길 1 (남창동),서울특별시 중구 남창동 168-21,생활방범,1,200,굴사랑 삼거리,30,2017-09,02-3396-4744,37.55751500,126.97733849,2019-05-28
"서울특별시 중구",서울특별시 중구 소공로 112(환구단4),서울특별시 중구 소공동 87-14,시설물관리,1,200,환구단4,30,2013-02,02-3396-4744,37.56508100,126.98030000,2019-05-28
"서울특별시 중구",서울특별시 중구 퇴계로12가길 21 (회현동1가),서울특별시 중구 회현동1가 148-23,생활방범,1,200,시범아파트,30,2016-12,02-3396-4744,37.55571810,126.98101580,2019-05-28
"서울특별시 중구",서울특별시 중구 소공로3길 10-10 (회현동1가),서울특별시 중구 회현동1가 51-2,생활방범,2,130,서원빌라 삼거리,30,2012-06,02-3396-4744,37.55742554,126.98196262,2019-05-28
"서울특별시 중구",서울특별시 중구 퇴계로6가길 36-2 (남창동),서울특별시 중구 남창동 205-105,생활방범,3,200,하광장 아래 삼거리,30,2012-06,02-3396-4744,37.55622900,126.97727900,2019-05-28
"서울특별시 중구",서울특별시 중구 퇴계로6길 36 (남창동),서울특별시 중구 남창동 202,어린이보호,1,200,일신유치원,30,2012-12,02-3396-4744,37.55676800,126.97908500,2019-05-28
"서울특별시 중구",서울특별시 중구 서소문로11길 1 (서소문동),서울특별시 중구 서소문동 55-3,생활방범,1,200,고려삼계탕 옆,30,2014-11,02-3396-4744,37.56292900,126.97308700,2019-05-28
"서울특별시 중구",서울특별시 중구 덕수궁길 83 (정동),서울특별시 중구 정동 1-8,생활방범,1,200,덕수초교 정문,30,2016-12,02-3396-4744,37.56867708,126.97417617,2019-05-28
"서울특별시 중구",서울특별시 중구 소공로 112(환구단 정문1),서울특별시 중구 소공동 87-14,시설물관리,1,200,환구단 정문1,30,2013-02,02-3396-4744,37.56517300,126.97920700,2019-05-28
"서울특별시 중구",서울특별시 중구 통일로4길 22 (순화동),서울특별시 중구 순화동 1-1,생활방범,1,200,이화여외고 정문,30,2016-12,02-3396-4744,37.56469200,126.96877300,2019-05-28
"서울특별시 중구",서울특별시 중구 세종대로11길 26 (서소문동),서울특별시 중구 서소문동 120,생활방범,1,200,삼성본관 뒷길,30,2017-09,02-3396-4744,37.56224146,126.97464824,2019-05-28
"서울특별시 중구",서울특별시 중구 통일로 92 (순화동),서울특별시 중구 순화동 1-88,생활방범,1,200,에이스타워 뒤,30,2017-09,02-3396-4744,37.56396789,126.96951181,2019-05-28
"서울특별시 중구",서울특별시 중구 덕수궁길 140 (정동),서울특별시 중구 정동 1-68,생활방범,1,130,덕수초교 사거리,30,2010-10,02-3396-4744,37.56921000,126.97436800,2019-05-28
"서울특별시 중구",서울특별시 중구 정동길 22 (정동),서울특별시 중구 정동 28,생활방범,1,130,창덕여중 쪽문 삼거리,30,2012-06,02-3396-4744,37.56631508,126.96919262,2019-05-28
"서울특별시 중구",서울특별시 중구 소공로 112(환구단 정문2),서울특별시 중구 소공동 87-14,시설물관리,1,200,환구단 정문2,30,2013-02,02-3396-4744,37.56528800,126.97898500,2019-05-28
"서울특별시 중구",서울특별시 중구 서소문로83-1,서울특별시 중구 순화동 6-19,생활방범,4,200,장호왕곱창앞,30,2015-12,02-3396-4744,37.56231700,126.97044000,2019-05-28
"서울특별시 중구",서울특별시 중구 소파로 141,서울특별시 중구 남산동3가 30-7,어린이보호,4,200,남산초등학교 앞,30,2016-12,02-3396-4744,37.55978100,126.98752100,2019-05-28
"서울특별시 중구",서울특별시 중구 퇴계로20나길42,서울특별시 중구 남산동2가 49-14,생활방범,3,200,아트몬스테이 게스트하우스 옆 전신주,30,2016-12,02-3396-4744,37.55751200,126.98522500,2019-05-28
"서울특별시 중구",서울특별시 중구 퇴계로 20길 41-6,서울특별시 중구 남산동2가19-2,생활방범,3,200,열매나눔빌딩 뒤편 골목,30,2016-12,02-3396-4744,37.55858100,126.98660200,2019-05-28
"서울특별시 중구",서울특별시 중구 소공로6가길 37,서울특별시 중구 회현동1가 144-39,생활방범,3,200,우리번역 앞 계단입구,30,2017-09,02-3396-4744,37.55692500,126.98411200,2019-05-28
"서울특별시 중구",서울특별시 중구 퇴계로18길 88,서울특별시 중구 회현동1가 144-35,생활방범,2,200,주택가 앞 보안등주,30,2018-10,02-3396-4744,37.55724000,126.98440000,2019-05-28
"서울특별시 중구",서울특별시 중구 다동길 11,서울특별시 중구 다동 46,생활방범,3,200,태평로파출소 공중전화 앞,30,2016-12,02-3396-4744,37.56793200,126.98003100,2019-05-28
"서울특별시 중구",서울특별시 중구 소공로 112(환구단 실내),서울특별시 중구 소공동 87-14,시설물관리,1,130,환구단 실내,30,2013-02,02-3396-4744,37.56506000,126.97969600,2019-05-28
"서울특별시 중구",서울특별시 중구 정동길 21-18 (구러시아공사관),서울특별시 중구 정동 15-3,시설물관리,1,200,구러시아공사관,30,2013-02,02-3396-4744,37.56800500,126.97143100,2019-05-28
"서울특별시 중구",서울특별시 중구 정동길 21-18 (구러시아공사관),서울특별시 중구 정동 15-3,시설물관리,1,200,구러시아공사관,30,2013-02,02-3396-4744,37.56811000,126.97144700,2019-05-28
"서울특별시 중구",서울특별시 중구 중림로 7길 23-22,서울특별시 중구 중림동 149-28,생활방범,3,200,주택가 골목 전신주 옆,30,2016-12,02-3396-4744,37.55883100,126.96833900,2019-05-28
"서울특별시 중구",서울특별시 중구 만리재로 33길22,서울특별시 중구 만리동1가 62-15,어린이보호,3,200,서울역 리가아파트앞,30,2018-10,02-3396-4744,37.55556000,126.96730000,2019-05-28
"서울특별시 중구",서울특별시 중구 후암로 60길 17,서울특별시 중구 남대문로5가 542,생활방범,3,200,케이팝호텔 앞 전신주,30,2016-12,02-3396-4744,37.55460900,126.97411900,2019-05-28
"서울특별시 중구",서울특별시 중구 퇴계로8길 70,서울특별시 중구 회현동1가 100-38,생활방범,3,200,정화예술학교인근,30,2016-12,02-3396-4744,37.55670100,126.98021100,2019-05-28
"서울특별시 중구",서울특별시 중구 퇴계로8길 101,서울특별시 중구 회현동 147-25,생활방범,3,200,시민아파트 입구 엘리베이터 내,30,2017-09,02-3396-4744,37.55532100,126.98092900,2019-05-28
"서울특별시 중구",서울특별시 중구 소공로3길 34,서울특별시 중구 회현동1가 142-16,생활방범,3,200,삼풍아파트 입구,30,2017-09,02-3396-4744,37.55674200,126.98253200,2019-05-28
"서울특별시 중구",서울특별시 중구 정동길 21-18 (구러시아공사관),서울특별시 중구 정동 15-3,시설물관리,1,200,구러시아공사관,30,2013-02,02-3396-4744,37.56805200,126.97174500,2019-05-28
"서울특별시 중구",서울특별시 중구 정동길 21-18 (구러시아공사관),서울특별시 중구 정동 15-3,시설물관리,1,130,구러시아공사관 실내,30,2013-02,02-3396-4744,37.56802900,126.97153300,2019-05-28
"서울특별시 중구",서울특별시 중구 퇴계로12길 41,서울특별시 중구 회현동1가 55-3,생활방범,4,200,금성오토바이 옆,30,2017-09,02-3396-4744,37.55782500,126.98142100,2019-05-28
"서울특별시 중구",서울특별시 중구 퇴계로8길 65-8,서울특별시 중구 회현동1가 100-171,생활방범,3,200,정화예술대 정면,30,2017-12,02-3396-4744,37.55677700,126.98058000,2019-05-28
"서울특별시 중구",서울특별시 중구 퇴계로8길 49-17,서울특별시 중구 회현동1가 100-197,생활방범,1,200,성도교회 관사 앞,30,2017-12,02-3396-4744,37.55713400,126.98075700,2019-05-28
"서울특별시 중구",서울특별시 중구 퇴계로12길 62-22,서울특별시 중구 회현동1가 105-1,생활방범,2,200,대문 앞 벽면,30,2017-12,02-3396-4744,37.55686400,126.98085900,2019-05-28
"서울특별시 중구",서울특별시 중구 남대문로5가 9-2,서울특별시 중구 세종대로 지하 2,생활방범,3,200,서울역 지하보도,30,2018-07,02-3396-4744,37.55737500,126.97176600,2019-05-28
"서울특별시 중구",서울특별시 중구 남대문로5가 9-2,서울특별시 중구 세종대로 지하 2,생활방범,3,200,서울역 지하보도,30,2018-07,02-3396-4744,37.55754600,126.972037,2019-05-28
"서울특별시 중구",서울특별시 중구 남대문로 39,서울특별시 중구 남대문로3가 110,생활방범,3,200,한국은행화폐박물관앞 지하보도,30,2019-05,02-3396-4744,37.56169100,126.98049100,2019-05-28
"서울특별시 중구",서울특별시 중구 남대문로 39,서울특별시 중구 남대문로3가 110,생활방범,2,200,한국은행화폐박물관앞 지하보도,30,2019-05,02-3396-4744,37.56133200,126.98066700,2019-05-28
"서울특별시 중구",서울특별시 중구 퇴계로68길 (광희문1),서울특별시 중구 광희동2가 105,시설물관리,1,200,광희문1,30,2013-01,02-3396-4744,37.56418200,127.00988500,2019-05-28
"서울특별시 중구",서울특별시 중구 퇴계로68길 (광희문2),서울특별시 중구 광희동2가 105,시설물관리,1,200,광희문2,30,2013-01,02-3396-4744,37.56421800,127.01013700,2019-05-28
"서울특별시 중구",서울특별시 중구 퇴계로68길 (광희문 실내),서울특별시 중구 광희동2가 105,시설물관리,1,130,광희문 실내,30,2009-06,02-3396-4744,37.56434000,127.00997400,2019-05-28
"서울특별시 중구",서울특별시 중구 퇴계로68길 (광희문 성벽1),서울특별시 중구 광희동2가 105,시설물관리,1,200,광희문 성벽1,30,2013-01,02-3396-4744,37.56442100,127.00984700,2019-05-28
"서울특별시 중구",서울특별시 중구 퇴계로68길 (광희문 성벽2),서울특별시 중구 광희동2가 105,시설물관리,1,200,광희문 성벽2,30,2013-01,02-3396-4744,37.56327000,127.01026600,2019-05-28
"서울특별시 중구",서울특별시 중구 퇴계로68길 (광희문 성벽3),서울특별시 중구 광희동2가 105,시설물관리,1,200,광희문 성벽3,30,2013-01,02-3396-4744,37.56384900,127.00990900,2019-05-28
"서울특별시 중구",서울특별시 중구 퇴계로68길 (광희문 성벽4),서울특별시 중구 광희동2가 105,시설물관리,1,200,광희문 성벽4,30,2013-01,02-3396-4744,37.56385100,127.01016900,2019-05-28
"서울특별시 중구",서울특별시 중구 퇴계로68길 (광희문 성벽5),서울특별시 중구 광희동2가 105,시설물관리,1,200,광희문 성벽5,30,2013-01,02-3396-4744,37.56326400,127.00980700,2019-05-28
"서울특별시 중구",서울특별시 중구 퇴계로68길 (광희문 뒷편1),서울특별시 중구 광희동2가 105,시설물관리,1,41,광희문 뒷편1,30,2009-06,02-3396-4744,37.56300700,127.01019600,2019-05-28
"서울특별시 중구",서울특별시 중구 퇴계로68길 (광희문 뒷편2),서울특별시 중구 광희동2가 105,시설물관리,1,41,광희문 뒷편2,30,2009-06,02-3396-4744,37.56299000,127.00996500,2019-05-28
"서울특별시 중구",서울특별시 중구 동호로 385-1(성제묘),서울특별시 중구 방산동 4-96,시설물관리,1,200,성제묘,30,2013-02,02-3396-4744,37.56881500,127.00182200,2019-05-28
"서울특별시 중구",서울특별시 중구 동호로 385-1(성제묘),서울특별시 중구 방산동 4-96,시설물관리,1,130,성제묘,30,2013-02,02-3396-4744,37.56882300,127.00177300,2019-05-28
"서울특별시 중구",서울특별시 중구 장충단로 60(서울성곽 팔각정1),서울특별시 중구 장충동2가 산5-5,시설물관리,1,41,서울성곽 팔각정,30,2010-01,02-3396-4744,37.54986600,127.00440100,2019-05-28
"서울특별시 중구",서울특별시 중구 장충단로 60(서울성곽 팔각정2),서울특별시 중구 장충동2가 산5-6,시설물관리,1,41,서울성곽 토끼굴,30,2010-01,02-3396-4744,37.55366500,127.00443700,2019-05-28
"서울특별시 중구",서울특별시 중구 장충단로 60(서울성곽 토끼굴),서울특별시 중구 장충동2가 산5-5,시설물관리,1,200,서울성곽,30,2013-02,02-3396-4744,37.55144400,127.00386200,2019-05-28
"서울특별시 중구",서울특별시 중구 필동로 1길 30,서울특별시 중구 장충동2가 192-5,시설물관리,1,200,정각원 내부 1,30,2012-12,02-3396-4744,37.55740100,127.00126500,2019-05-28
"서울특별시 중구",서울특별시 중구 필동로 1길 30,서울특별시 중구 장충동2가 192-5,시설물관리,1,200,정각원 내부 2,30,2012-12,02-3396-4744,37.55753200,127.00118800,2019-05-28
"서울특별시 중구",서울특별시 중구 필동로 1길 30,서울특별시 중구 장충동2가 192-5,시설물관리,1,200,정각원 내부 3,30,2012-12,02-3396-4744,37.55752100,127.00106100,2019-05-28
"서울특별시 중구",서울특별시 중구 필동로 1길 30,서울특별시 중구 장충동2가 192-5,시설물관리,1,200,정각원 내부 4,30,2012-12,02-3396-4744,37.55743700,127.00103800,2019-05-28
"서울특별시 중구",서울특별시 중구 필동로 1길 30,서울특별시 중구 장충동2가 192-5,시설물관리,1,200,정각원 외부 1,30,2012-12,02-3396-4744,37.55759300,127.00100600,2019-05-28
"서울특별시 중구",서울특별시 중구 필동로 1길 30,서울특별시 중구 장충동2가 192-5,시설물관리,1,200,정각원 외부 2,30,2012-12,02-3396-4744,37.55733200,127.00089700,2019-05-28
"서울특별시 중구",서울특별시 중구 필동로 1길 30,서울특별시 중구 장충동2가 192-5,시설물관리,1,200,정각원 외부 3,30,2012-12,02-3396-4744,37.55723700,127.00130500,2019-05-28
"서울특별시 중구",서울특별시 중구 필동로 1길 30,서울특별시 중구 장충동2가 192-5,시설물관리,1,200,정각원 외부 4,30,2012-12,02-3396-4744,37.55753900,127.00140300,2019-05-28
"서울특별시 중구",서울특별시 중구 동호로30길 2 (장충동2가 ),서울특별시 중구 장충동2가 186-140,시설물관리,1,200,관성묘 뒷문,30,2012-12,02-3396-4744,37.56083900,127.00317000,2019-05-28
"서울특별시 중구",서울특별시 중구 동호로30길 2 (장충동2가 ),서울특별시 중구 장충동2가 186-140,시설물관리,1,200,관성묘 앞,30,2012-12,02-3396-4744,37.56080000,127.00308200,2019-05-28
"서울특별시 중구",서울특별시 중구 동호로30길 2 (장충동2가 ),서울특별시 중구 장충동2가 186-140,시설물관리,1,200,관성묘 앞 PTZ,30,2012-12,02-3396-4744,37.56080800,127.00308200,2019-05-28
"서울특별시 중구",서울특별시 중구 세종대로 93(대한문 앞),서울특별시 중구 태평로2가 360-1,시설물관리,1,200,광학빌딩-대한문,30,2013-05,02-3396-4744,37.56476000,126.97686800,2019-05-28
"서울특별시 중구",서울특별시 중구 서소문로11길 19,서울특별시 중구 정동 34-5,시설물관리,1,200,배재학당 1,30,2012-12,02-3396-4744,37.56382900,126.97244400,2019-05-28
"서울특별시 중구",서울특별시 중구 서소문로11길 19,서울특별시 중구 정동 34-5,시설물관리,1,200,배재학당 2,30,2012-12,02-3396-4744,37.56415500,126.97275200,2019-05-28
"서울특별시 중구",서울특별시 중구 서소문로11길 19,서울특별시 중구 정동 34-5,시설물관리,1,200,배재학당 3,30,2012-12,02-3396-4744,37.56386700,126.97278700,2019-05-28
"서울특별시 중구",서울특별시 중구 서소문로11길 19,서울특별시 중구 정동 34-5,시설물관리,1,200,배재학당 4,30,2012-12,02-3396-4744,37.56409500,126.97238200,2019-05-28
"서울특별시 중구",서울특별시 중구 세종대로 19길 16,서울특별시 중구 정동 3-7,시설물관리,1,41,성공회성당 1,30,2012-12,02-3396-4744,37.56728100,126.97570000,2019-05-28
"서울특별시 중구",서울특별시 중구 세종대로 19길 16,서울특별시 중구 정동 3-7,시설물관리,1,41,성공회성당 2,30,2012-12,02-3396-4744,37.56728100,126.97570000,2019-05-28
"서울특별시 중구",서울특별시 중구 세종대로 19길 16,서울특별시 중구 정동 3-7,시설물관리,1,41,성공회성당 3,30,2012-12,02-3396-4744,37.56728000,126.97570000,2019-05-28
"서울특별시 중구",서울특별시 중구 세종대로 19길 16,서울특별시 중구 정동 3-7,시설물관리,1,41,성공회성당 4,30,2012-12,02-3396-4744,37.56717300,126.97630400,2019-05-28
"서울특별시 중구",서울특별시 중구 세종대로 19길 16,서울특별시 중구 정동 3-7,시설물관리,1,41,성공회성당 5,30,2012-12,02-3396-4744,37.56671600,126.97557700,2019-05-28
"서울특별시 중구",서울특별시 중구 남대문로 118 (남대문로1가 ),서울특별시 중구 남대문로1가 19,시설물관리,1,130,광통관 입구,30,2012-12,02-3396-4744,37.56783000,126.98293500,2019-05-28
"서울특별시 중구",서울특별시 중구 남대문로 118 (남대문로1가 ),서울특별시 중구 남대문로1가 19,시설물관리,1,200,광통관 후면,30,2012-12,02-3396-4744,37.56758700,126.98335000,2019-05-28
"서울특별시 중구",서울특별시 중구 덕수궁길 130,서울특별시 중구 정동 1-23,시설물관리,1,200,구세군 1,30,2012-12,02-3396-4744,37.56789800,126.97368500,2019-05-28
"서울특별시 중구",서울특별시 중구 덕수궁길 130,서울특별시 중구 정동 1-23,시설물관리,1,200,구세군 2,30,2012-12,02-3396-4744,37.56805500,126.97378200,2019-05-28
"서울특별시 중구",서울특별시 중구 덕수궁길 130,서울특별시 중구 정동 1-23,시설물관리,1,200,구세군 3,30,2012-12,02-3396-4744,37.56778900,126.97389200,2019-05-28
"서울특별시 중구",서울특별시 중구 덕수궁길 130,서울특별시 중구 정동 1-23,시설물관리,1,200,구세군 4,30,2012-12,02-3396-4744,37.56793400,126.97395100,2019-05-28
"서울특별시 중구",서울특별시 중구 청파로 447-1,서울특별시 중구 중림동 149-2,시설물관리,1,200,약현성당1,30,2012-12,02-3396-4744,37.55911700,126.96744600,2019-05-28
"서울특별시 중구",서울특별시 중구 청파로 447-1,서울특별시 중구 중림동 149-2,시설물관리,1,200,약현성당2,30,2012-12,02-3396-4744,37.55911700,126.96744600,2019-05-28
"서울특별시 중구",서울특별시 중구 청파로 447-1,서울특별시 중구 중림동 149-2,시설물관리,1,200,약현성당3,30,2012-12,02-3396-4744,37.55911700,126.96744600,2019-05-28
"서울특별시 중구",서울특별시 중구 청파로 447-1,서울특별시 중구 중림동 149-2,시설물관리,1,200,약현성당4,30,2012-12,02-3396-4744,37.55911700,126.96744600,2019-05-28
"서울특별시 중구",서울특별시 중구 청파로 447-1,서울특별시 중구 중림동 149-2,시설물관리,1,200,약현성당5,30,2012-12,02-3396-4744,37.55911700,126.96744600,2019-05-28
"서울특별시 중구",서울특별시 중구 청파로 447-1,서울특별시 중구 중림동 149-2,시설물관리,1,200,약현성당6,30,2012-12,02-3396-4744,37.55911700,126.96744600,2019-05-28
"서울특별시 중구",서울특별시 중구 청파로 447-1,서울특별시 중구 중림동 149-2,시설물관리,1,200,약현성당7,30,2012-12,02-3396-4744,37.55911700,126.96744600,2019-05-28
"서울특별시 중구",서울특별시 중구 청파로 447-1,서울특별시 중구 중림동 149-2,시설물관리,1,200,약현성당8,30,2012-12,02-3396-4744,37.55911700,126.96744600,2019-05-28
"서울특별시 중구",서울특별시 중구 청파로 447-1,서울특별시 중구 중림동 149-2,시설물관리,1,200,약현성당9,30,2012-12,02-3396-4744,37.55911700,126.96744600,2019-05-28
"서울특별시 중구",서울특별시 중구 퇴계로34길 28,서울특별시 중구 필동2가 84-1,재난재해,2,41,한옥마을내,30,2008-09,02-3396-4744,37.55837600,126.99401920,2019-05-28
"서울특별시 중구",서울특별시 중구 필동로6길 40,서울특별시 중구 필동2가 134-28,재난재해,2,41,필동주민운동장내,30,2010-10,02-3396-4744,37.55386100,126.99494100,2019-05-28
"서울특별시 중구",서울특별시 중구 장충단로 101,서울특별시 중구 장충동2가 산7-21,재난재해,2,41,장충테니스장옆,30,2010-07,02-3396-4744,37.55540210,127.00157020,2019-05-28
"서울특별시 중구",서울특별시 중구 장충단로 59 옆,서울특별시 중구 장충동2가 산14-21,재난재해,2,41,중앙극장옆,30,2010-07,02-3396-4744,37.55123050,126.99661760,2019-05-28
"서울특별시 중구",서울특별시 중구 명동9길 29 (을지로2가),서울특별시 중구 을지로2가 195,생활방범,1,200,한양빌딩 앞,30,2016-12,02-3396-4744,37.56500330,126.98439270,2019-05-28
"서울특별시 중구",서울특별시 중구 퇴계로16길 21 (남산동1가),서울특별시 중구 남산동1가 8-1,생활방범,1,200,정화예술대 정문,30,2017-09,02-3396-4744,37.55970703,126.98460191,2019-05-28
"서울특별시 중구",서울특별시 중구 남대문시장10길 2 (회현동1가),서울특별시 중구 회현동1가 204,생활방범,1,200,메사 옆,30,2017-09,02-3396-4744,37.56059600,126.97959423,2019-05-28
"서울특별시 중구",서울특별시 중구 소파로 46 (회현동1가),서울특별시 중구 회현동1가 100-115,생활방범,1,200,안중근기념관 옆 터널길가,30,2017-09,02-3396-4744,37.55457625,126.98057055,2019-05-28
"서울특별시 중구",서울특별시 중구 정동길 21 (정동),서울특별시 중구 정동 16-1,생활방범,1,200,"예원학교 정문, 주한캐나다 대사관옆",30,2016-12,02-3396-4744,37.56670700,126.97090000,2019-05-28
"서울특별시 중구",서울특별시 중구 퇴계로12길 62-5,서울특별시 중구 회현동1가 109,쓰레기단속,1,200,전봇대설치,30,2017-09,02-3396-4744,37.55683700,126.98134900,2019-05-28
"서울특별시 중구",서울특별시 중구 세종대로9길 53 (서소문동),서울특별시 중구 서소문동 58-12,생활방범,1,200,대한통운 뒤,30,2013-02,02-3396-4744,37.56201500,126.97309800,2019-05-28
"서울특별시 중구",서울특별시 중구 서소문로 11길 19,서울특별시 중구 서소문동 37,어린이보호,3,200,서울시청 직장어린이집 앞,30,2017-09,02-3396-4744,37.56381100,126.97295000,2019-05-28
"서울특별시 중구",서울특별시 중구 퇴계로12길 79,서울특별시 중구 회현동1가 147-16,생활방범,2,200,패션마이 앞,30,2017-09,02-3396-4744,37.55601400,126.98187400,2019-05-28
"서울특별시 중구",서울특별시 중구 남대문로1길 24 (북창동),서울특별시 중구 북창동 24-3,쓰레기단속,1,200,텍사스주점 앞,30,2017-09,02-3396-4744,37.56203000,126.97745000,2019-05-28
"서울특별시 중구",서울특별시 중구 동호로11아길 5,서울특별시 중구  신당동 432-556,쓰레기단속,1,200,통신주설치,30,2017-09,02-3396-4744,37.55170200,127.00553200,2019-05-28
"서울특별시 중구",서울특별시 중구 퇴계로6가길 14,서울특별시 중구 남창동 205-6,쓰레기단속,1,200,일신교회 후문,30,2017-09,02-3396-4744,37.55659130,126.97869500,2019-05-28
"서울특별시 중구",서울특별시 중구 퇴계로6길 36 (남창동),서울특별시 중구 남창동 206-61,쓰레기단속,1,200,삼선빌딩주차장,30,2017-09,02-3396-4744,37.55715500,126.97726100,2019-05-28
"서울특별시 중구",서울특별시 중구 퇴계로8길 80 (회현동),서울특별시 중구 회현동 100-239,쓰레기단속,1,200,기업은행 기숙사 뒤,30,2017-09,02-3396-4744,37.55643600,126.98048900,2019-05-28
"서울특별시 중구",서울특별시 중구 퇴계로20나길 36-2 (남산동2가),서울특별시 중구 남산동2가 49-10,쓰레기단속,1,200,주택가,30,2017-09,02-3396-4744,37.55776560,126.98535200,2019-05-28
"서울특별시 중구",서울특별시 중구 소공로6길 14,서울특별시 중구 회현동2가 32-2,쓰레기단속,1,200,유니온플라워,30,2017-09,02-3396-4744,37.55848140,126.98387910,2019-05-28
"서울특별시 중구",서울특별시 중구 퇴계로24길 14,서울특별시 중구 남산동3가 18-2,쓰레기단속,1,200,한국전력공사 벽 앞,30,2017-09,02-3396-4744,37.56043200,126.98750200,2019-05-28
"서울특별시 중구",서울특별시 중구 퇴계로20길 25-26,서울특별시 중구 남산동2가 18-5,쓰레기단속,1,200,명동경로당,30,2017-09,02-3396-4744,37.55909500,126.98629400,2019-05-28
"서울특별시 중구",서울특별시 중구 수표로2길 13,서울특별시 중구 충무로3가 59-24,쓰레기단속,1,200,문향서점 앞,30,2017-09,02-3396-4744,37.56213500,126.99121000,2019-05-28
"서울특별시 중구",서울특별시 중구 퇴계로31길 10,서울특별시 중구  필동1가 43-3,쓰레기단속,1,200,건물담장위,30,2017-09,02-3396-4744,37.56162840,126.99248560,2019-05-28
"서울특별시 중구",서울특별시 중구 다산로42길 55 (신당5동),서울특별시 중구 신당5동 132-9,쓰레기단속,1,200,다산공원 옆,30,2017-09,02-3396-4744,37.56420601,127.01924533,2019-05-28
"서울특별시 중구",서울특별시 중구 필동로1길 31 (필동3가),서울특별시 중구 필동3가 28-32,쓰레기단속,1,200,동국대 후문,30,2017-09,02-3396-4744,37.55874580,126.99789330,2019-05-28
"서울특별시 중구",서울특별시 중구 퇴계로36가길 38 (필동2가),서울특별시 중구 필동2가 104-1,쓰레기단속,1,200,삼영빌딩,30,2017-09,02-3396-4744,37.55867100,126.99580540,2019-05-28
"서울특별시 중구",서울특별시 중구 을지로 127 (을지로3가),서울특별시 중구 을지로3가 118-6,쓰레기단속,1,200,우리신용정보,30,2017-09,02-3396-4744,37.56660300,126.99202300,2019-05-28
"서울특별시 중구",서울특별시 중구 동호로30길 17 (장충동2가),서울특별시 중구 장충동2가 186-20,쓰레기단속,1,200,장충단교회 교육단,30,2017-09,02-3396-4744,37.56120550,127.00348200,2019-05-28
"서울특별시 중구",서울특별시 중구 퇴계로50길 53 (묵정동),서울특별시 중구 묵정동 22-22,쓰레기단속,1,200,한전주설치,30,2017-09,02-3396-4744,37.56023000,127.00100800,2019-05-28
"서울특별시 중구",서울특별시 중구 장충단로6가길 21-2 (장충동1가),서울특별시 중구 장충동1가 44-10,쓰레기단속,1,200,샘미용실 화단,30,2017-09,02-3396-4744,37.56118600,127.00813800,2019-05-28
"서울특별시 중구",서울특별시 중구 동호로28길 34 (장충동2가),서울특별시 중구 장충동2가 186-25,쓰레기단속,1,200,주택가,30,2017-09,02-3396-4744,37.56081400,127.00356900,2019-05-28
"서울특별시 중구",서울특별시 중구 장충단로8가길 26 (광희동2가),서울특별시 중구 광희동2가 303-24,쓰레기단속,1,200,대현출판사 앞,30,2017-09,02-3396-4744,37.56335200,127.00780500,2019-05-28
"서울특별시 중구",서울특별시 중구 퇴계로41길 40 (인현동2가),서울특별시 중구 인현동2가 181-70,쓰레기단속,1,200,유창정밀인쇄 앞,30,2017-09,02-3396-4744,37.56368400,126.99607600,2019-05-28
"서울특별시 중구",서울특별시 중구 창경궁로1길 37 (충무로4가),서울특별시 중구 충무로4가 109-1,쓰레기단속,1,200,무릉약국 건너편 전주,30,2017-09,02-3396-4744,37.56236220,126.99637790,2019-05-28
"서울특별시 중구",서울특별시 중구 을지로39길 40 (을지로6가),서울특별시 중구 을지로6가 18-14,쓰레기단속,1,200,구민회관 북측 담벽,30,2017-09,02-3396-4744,37.56827200,127.00600500,2019-05-28
"서울특별시 중구",서울특별시 중구 을지로27가길 10 (주교동),서울특별시 중구 주교동 273-5,쓰레기단속,1,200,주교동분식 앞,30,2017-09,02-3396-4744,37.56780100,126.99965000,2019-05-28
"서울특별시 중구",서울특별시 중구 마른내로4길 11,서울특별시 중구 인현동1가 114-2,쓰레기단속,1,200,한전주 설치,30,2017-09,02-3396-4744,37.56390900,126.99393300,2019-05-28
"서울특별시 중구",서울특별시 중구 다산로31길 16 (신당동),서울특별시 중구 신당동 304-362,쓰레기단속,1,200,가나안 슈퍼 옆,30,2017-09,02-3396-4744,37.56170200,127.01348800,2019-05-28
"서울특별시 중구",서울특별시 중구 다산로39길 46,서울특별시 중구 신당동 248-34,쓰레기단속,1,200,전신주,30,2017-09,02-3396-4744,37.56469100,127.01319100,2019-05-28
"서울특별시 중구",서울특별시 중구 퇴계로73가길 26 (신당동),서울특별시 중구 신당동 251-91,쓰레기단속,1,200,뉴존 뒤편 전주,30,2017-09,02-3396-4744,37.56607290,127.01343800,2019-05-28
"서울특별시 중구",서울특별시 중구 청구로8길 22 (신당동),서울특별시 중구 신당동 304-720,쓰레기단속,1,200,대영사 맞은편,30,2017-09,02-3396-4744,37.56158300,127.01390100,2019-05-28
"서울특별시 중구",서울특별시 중구 다산로35길 25-31,서울특별시 중구 신당동 241-25,쓰레기단속,1,200,세븐일레븐앞,30,2017-09,02-3396-4744,37.56318200,127.01415300,2019-05-28
"서울특별시 중구",서울특별시 중구 다산로29길 45 (신당동),서울특별시 중구 신당동 305-26,쓰레기단속,1,200,시연머리방 앞,30,2017-09,02-3396-4744,37.56177510,127.01167740,2019-05-28
"서울특별시 중구",서울특별시 중구 동호로11다길 18 (신당동),서울특별시 중구 다산동 353-47,쓰레기단속,1,200,장수노인정,30,2017-09,02-3396-4744,37.55181500,127.00709900,2019-05-28
"서울특별시 중구",서울특별시 중구 동호로11마길 20-4 (신당동),서울특별시 중구 다산동 432-503,쓰레기단속,1,200,묘각사 입구,30,2017-09,02-3396-4744,37.55137400,127.00622100,2019-05-28
"서울특별시 중구",서울특별시 중구 동호로14길 42 (신당동),서울특별시 중구 다산동 417-10,쓰레기단속,1,200,한전주설치,30,2017-09,02-3396-4744,37.55708590,127.01025820,2019-05-28
"서울특별시 중구",서울특별시 중구 동호로11길 98 (신당동),서울특별시 중구 다산동 353-26,쓰레기단속,1,200,세광빌라 앞,30,2017-09,02-3396-4744,37.55129000,127.00714700,2019-05-28
"서울특별시 중구",서울특별시 중구 동호로15가길 14 (신당동),서울특별시 중구 다산동 429-17,쓰레기단속,1,200,한전주설치,30,2017-09,02-3396-4744,37.55552870,127.00799850,2019-05-28
"서울특별시 중구",서울특별시 중구 동호로12길 29 (신당동),서울특별시 중구 신당동 381-27,쓰레기단속,1,200,문화공영주차장,30,2017-09,02-3396-4744,37.55660720,127.01108120,2019-05-28
"서울특별시 중구",서울특별시 중구 다산로8길 16-14 (신당동),서울특별시 중구 약수동 366-72,쓰레기단속,1,200,건물위,30,2017-09,02-3396-4744,37.55221390,127.01017400,2019-05-28
"서울특별시 중구",서울특별시 중구 동호로8나길 69 (약수동),서울특별시 중구 약수동 309-216,쓰레기단속,1,200,주택가,30,2017-09,02-3396-4744,37.55256320,127.01435500,2019-05-28
"서울특별시 중구","서울특별시 중구 청구로1길 39 (신당동, 청구아파트)",서울특별시 중구 청구동 841,쓰레기단속,1,200,청구 APT,30,2017-09,02-3396-4744,37.55783670,127.01605590,2019-05-28
"서울특별시 중구",서울특별시 중구 청구로3길 80 (신당동),서울특별시 중구 청구동 340-15,쓰레기단속,1,200,청구초교 후문,30,2017-09,02-3396-4744,37.55772100,127.01484900,2019-05-28
"서울특별시 중구",서울특별시 중구 다산로44길 22-3,서울특별시 중구 신당동 121-19,쓰레기단속,1,200,골목길 입구,30,2017-09,02-3396-4744,37.56483500,127.01820900,2019-05-28
"서울특별시 중구",서울특별시 중구 퇴계로88나길 23 (신당동),서울특별시 중구 신당동 67-32,쓰레기단속,1,200,사거리전봇대,30,2017-09,02-3396-4744,37.56251400,127.02055700,2019-05-28
"서울특별시 중구",서울특별시 중구 퇴계로90길 42 (신당동),서울특별시 중구 신당5동 155-10,쓰레기단속,1,200,유락경로당 앞,30,2017-09,02-3396-4744,37.56330400,127.02180010,2019-05-28
"서울특별시 중구",서울특별시 중구 퇴계로88가길 48-11(신당5동),서울특별시 중구 신당5동 166-5,쓰레기단속,1,200,주택가,30,2017-09,02-3396-4744,37.56286300,127.02296600,2019-05-28
"서울특별시 중구",서울특별시 중구 퇴계로88다길 26 (신당동),서울특별시 중구 동화동 52-80,쓰레기단속,1,200,한일빌라 앞,30,2017-09,02-3396-4744,37.56237130,127.02002110,2019-05-28
"서울특별시 중구",서울특별시 중구 다산로38길 60 (신당동),서울특별시 중구 동화동 52-33,쓰레기단속,1,200,각산타운 앞,30,2017-09,02-3396-4744,37.56207270,127.01888370,2019-05-28
"서울특별시 중구",서울특별시 중구 다산로36가길 32 (신당동),서울특별시 중구 동화동 62-61,쓰레기단속,1,200,상영빌딩 앞,30,2017-09,02-3396-4744,37.56138500,127.02027390,2019-05-28
"서울특별시 중구",서울특별시 중구 다산로36나길 14 (신당동),서울특별시 중구 동화동 55-29,쓰레기단속,1,200,한전주설치,30,2017-09,02-3396-4744,37.56062160,127.01971290,2019-05-28
"서울특별시 중구",서울특별시 중구 퇴계로83길 30-11 (황학동),서울특별시 중구 황학동 340,쓰레기단속,1,200,신일쇼파,30,2017-09,02-3396-4744,37.56712610,127.01895910,2019-05-28
"서울특별시 중구",서울특별시 중구 퇴계로 431 (황학동),서울특별시 중구 황학동 729,쓰레기단속,1,200,중앙시장 정문,30,2017-09,02-3396-4744,37.56578400,127.01931000,2019-05-28
"서울특별시 중구",서울특별시 중구 마장로 90 (황학동),서울특별시 중구 황학동 507,쓰레기단속,1,200,중앙시장 후문,30,2017-09,02-3396-4744,37.56827870,127.01949450,2019-05-28
"서울특별시 중구",서울특별시 중구 중림로4길 8 (중림동),서울특별시 중구 중림동 397-9,쓰레기단속,1,200,중림동삼성사이버빌리지 101동 옆,30,2017-09,02-3396-4744,37.55872480,126.96424260,2019-05-28
"서울특별시 중구",서울특별시 중구 서소문로2길 25 (중림동),서울특별시 중구 중림동 395-10,쓰레기단속,1,200,주택가,30,2017-09,02-3396-4744,37.55802590,126.96316410,2019-05-28
"서울특별시 중구",서울특별시 중구 서소문로6길 16,서울특별시 중구 중림동 155-1,쓰레기단속,1,200,중림종합사회복지관 앞,30,2017-09,02-3396-4744,37.55943180,126.96613300,2019-05-28
"서울특별시 중구",서울특별시 중구 손기정로1길 50 (중림동),서울특별시 중구 중림동 400-15,쓰레기단속,1,200,로하스PC방,30,2017-09,02-3396-4744,37.55897600,126.96258440,2019-05-28
"서울특별시 중구",서울특별시 중구 동호로8라길 5 (신당동),서울특별시 중구 약수동 346-463,쓰레기단속,1,200,럭키빌라 코너,30,2017-09,02-3396-4744,37.55320730,127.01497420,2019-05-28
"서울특별시 중구",서울특별시 중구 청구로1길 82 (신당동),서울특별시 중구 청구동 333-504,쓰레기단속,1,200,동산초교 남문,30,2017-09,02-3396-4744,37.55626660,127.01531420,2019-05-28
"서울특별시 중구","서울특별시 중구 난계로17길 30 (황학동, 엠피에스산업)",서울특별시 중구 황학동 1540,쓰레기단속,1,200,엠피에스산업(풍년식당),30,2017-09,02-3396-4744,37.56950330,127.02167070,2019-05-28
"서울특별시 중구",서울특별시 중구 소파로2길 10,서울특별시 중구 예장동 8-3,재난재해,2,41,숭의초등학교 내,30,1905-07,02-3396-4744,37.55706280,126.98752070,2019-05-28
"서울특별시 중구",서울특별시 중구 삼일대로 298 (충무로2가),서울특별시 중구 충무로2가 53-8,생활방범,1,200,도미노피자황단보도 좌측,30,2017-09,02-3396-4744,37.56119326,126.98936820,2019-05-28
"서울특별시 중구",서울특별시 중구 충무로 13 (충무로3가),서울특별시 중구 충무로3가 50-2,생활방범,3,200,지산식품 앞,30,2017-09,02-3396-4744,37.56216917,126.99226499,2019-05-28
"서울특별시 중구",서울특별시 중구 퇴계로 212 (필동2가),서울특별시 중구 필동2가 19-1,생활방범,4,200,대한극장 공중전화 박스 뒤,30,2014-11,02-3396-4744,37.56134847,126.99539244,2019-05-28
"서울특별시 중구",서울특별시 중구 퇴계로36나길 32 (필동2가),서울특별시 중구 필동2가 84-32,생활방범,3,200,두리식당앞 삼거리,30,2015-12,02-3396-4744,37.55661755,126.99351758,2019-05-28
"서울특별시 중구",서울특별시 중구 필동로 42 (필동2가),서울특별시 중구 필동2가 112-1,생활방범,4,200,필동어린이집앞,30,2015-12,02-3396-4744,37.55775299,126.99564189,2019-05-28
"서울특별시 중구",서울특별시 중구 필동로6길 10 (필동2가),서울특별시 중구 필동2가 134-5,생활방범,4,200,올라슈퍼앞 사거리,30,2015-12,02-3396-4744,37.55504617,126.99561238,2019-05-28
"서울특별시 중구",서울특별시 중구 서애로 12-1 (필동3가),서울특별시 중구 필동3가 17-1,생활방범,1,200,미니스톱앞 사거리,30,2011-09,02-3396-4744,37.56116987,126.99801296,2019-05-28
"서울특별시 중구",서울특별시 중구 서애로 15-10 (필동3가),서울특별시 중구 필동3가 20-17,생활방범,2,200,마트짱 옆골목,30,2012-06,02-3396-4744,37.56057028,126.99817657,2019-05-28
"서울특별시 중구",서울특별시 중구 서애로5길 26 (필동3가),서울특별시 중구 필동3가 28-25,생활방범,2,200,세원문화사 앞,30,2016-12,02-3396-4744,37.55905002,126.99730486,2019-05-28
"서울특별시 중구",서울특별시 중구 필동로 55,서울특별시 중구 필동3가 62-12,생활방범,3,200,필동공영주차장 앞모서리 인도,30,2016-12,02-3396-4744,37.55652200,126.99565700,2019-05-28
"서울특별시 중구",서울특별시 중구 필동로1길 18 (필동3가),서울특별시 중구 필동3가 39-15,생활방범,4,200,도리빌딩 사거리-남산주차장,30,2012-06,02-3396-4744,37.55854397,126.99694544,2019-05-28
"서울특별시 중구",서울특별시 중구 서애로 26 (필동3가),서울특별시 중구 필동3가 1-5,생활방범,5,200,필동면옥앞,30,2015-12,02-3396-4744,37.56015141,126.99688375,2019-05-28
"서울특별시 중구",서울특별시 중구 필동로8길 50 (예장동),서울특별시 중구 예장동 1-149,생활방범,3,200,남산파크빌라 사거리,30,2018-10,02-3396-4744,37.55585206,126.99371874,2019-05-28
"서울특별시 중구",서울특별시 중구 소파로4길 32 (예장동),서울특별시 중구 예장동 6-47,생활방범,2,200,리라초교후문,30,2016-12,02-3396-4744,37.55860138,126.98852867,2019-05-28
"서울특별시 중구",서울특별시 중구 삼일대로2길 70 (주자동),서울특별시 중구 주자동 49-16,생활방범,3,200,주자동빌딩 앞,30,2015-12,02-3396-4744,37.56015141,126.99015141,2019-05-28
"서울특별시 중구",서울특별시 중구 필동로 96 (장충동2가),서울특별시 중구 장충동2가 192-45,생활방범,1,200,중구실버타운 부근노상,30,2017-09,02-3396-4744,37.55338121,126.99706614,2019-05-28
"서울특별시 중구",서울특별시 중구 퇴계로27길 12-3 (필동1가),서울특별시 중구 필동1가 3-17,생활방범,3,200,극동빌딩옆 인도,30,2013-02,02-3396-4744,37.56167000,126.99160000,2019-05-28
"서울특별시 중구",서울특별시 중구 퇴계로 210-19 (필동2가),서울특별시 중구 필동2가 18-5,생활방범,4,200,포메인 앞,30,2013-02,02-3396-4744,37.56058970,126.99536350,2019-05-28
"서울특별시 중구",서울특별시 중구 서애로3길19,서울특별시 중구 필동3가25-1,생활방범,4,200,세움빌딩옆,30,2015-12,02-3396-4744,37.55972400,126.99750000,2019-05-28
"서울특별시 중구",서울특별시 중구 서애로3길40,서울특별시 중구 장충동2가192-112,생활방범,4,200,동국대 원흥별관 뒤 골목끝,30,2015-12,02-3396-4744,37.55896700,126.99833810,2019-05-28
"서울특별시 중구",서울특별시 중구 퇴계로44길17,서울특별시 중구 필동3가10-1,생활방범,4,200,독천낙지앞,30,2015-12,02-3396-4744,37.56112800,126.99725200,2019-05-28
"서울특별시 중구",서울특별시 중구 을지로38길 32 (을지로5가),서울특별시 중구 을지로5가 148-2,생활방범,2,130,건능골생선구이 앞 사거리,30,2012-06,02-3396-4744,37.56528182,127.00318694,2019-05-28
"서울특별시 중구",서울특별시 중구 장충단로13길 20 (을지로6가),서울특별시 중구 을지로6가 17-2,생활방범,3,200,카레스타 앞,30,2013-02,02-3396-4744,37.56789685,127.00774133,2019-05-28
"서울특별시 중구",서울특별시 중구 장충단로 275 (을지로6가),서울특별시 중구 을지로6가 18-12,생활방범,3,200,두산타워 정문 앞,30,2016-12,02-3396-4744,37.56890669,127.00937748,2019-05-28
"서울특별시 중구",서울특별시 중구 장충단로 263 (을지로6가),서울특별시 중구 을지로6가 18-17,생활방범,3,200,밀리오레 정문 앞,30,2016-12,02-3396-4744,37.56777566,127.00868279,2019-05-28
"서울특별시 중구",서울특별시 중구 장충단로 253 (을지로6가),서울특별시 중구 을지로6가 18-35,생활방범,2,200,헬로우 APM정문 앞,30,2014-11,02-3396-4744,37.56717613,127.00828582,2019-05-28
"서울특별시 중구",서울특별시 중구 을지로43길 15 (을지로6가),서울특별시 중구 을지로6가 18-52,생활방범,3,200,굿모닝시티뒤 삼거리,30,2018-10,02-3396-4744,37.56711447,127.00708151,2019-05-28
"서울특별시 중구",서울특별시 중구 을지로42길 10-4 (을지로6가),서울특별시 중구 을지로6가 34-6,생활방범,3,200,정미사 골목끝,30,2016-12,02-3396-4744,37.56578569,127.00557947,2019-05-28
"서울특별시 중구",서울특별시 중구 퇴계로63길 22-23,서울특별시 중구 을지로7가 45,생활방범,3,200,토요코인호텔뒤,30,2017-09,02-3396-4744,37.56478800,127.00895300,2019-05-28
"서울특별시 중구",서울특별시 중구 퇴계로 325-12 (광희동2가),서울특별시 중구 을지로7가 128,생활방범,3,200,라모도 뒤,30,2016-12,02-3396-4744,37.56489274,127.00809538,2019-05-28
"서울특별시 중구",서울특별시 중구 동호로34길 27 (광희동1가),서울특별시 중구 광희동1가 11번지,생활방범,4,200,덕원빌딩 사거리,30,2017-09,02-3396-4744,37.56504369,127.00405866,2019-05-28
"서울특별시 중구",서울특별시 중구 퇴계로53길 16-13 (쌍림동),서울특별시 중구 쌍림동 22-6,생활방범,4,200,금강빌딩 앞,30,2017-09,02-3396-4744,37.56436547,127.00453877,2019-05-28
"서울특별시 중구",서울특별시 중구 을지로40길 21-38 (광희동1가),서울특별시 중구 광희동1가 112-3,생활방범,4,200,정온장 앞,30,2014-11,02-3396-4744,37.56545190,127.00565189,2019-05-28
"서울특별시 중구",서울특별시 중구 을지로 264 (광희동1가),서울특별시 중구 광희동1가 182-1,생활방범,3,200,동대문패션티비 사거리,30,2014-11,02-3396-4744,37.56558797,127.00663358,2019-05-28
"서울특별시 중구",서울특별시 중구 마른내로 162 (광희동1가),서울특별시 중구 광희동1가 207-2,생활방범,4,200,우리은행 앞 인도,30,2018-10,02-3396-4744,37.56446752,127.00612000,2019-05-28
"서울특별시 중구",서울특별시 중구 마른내로 112 (오장동),서울특별시 중구 오장동 90-1,생활방범,4,200,중부시장 후문 맞은편,30,2016-12,02-3396-4744,37.56441650,127.00037599,2019-05-28
"서울특별시 중구",서울특별시 중구 을지로36길 12 (을지로5가),서울특별시 중구 을지로5가 272-17,생활방범,1,200,성우빌딩 앞,30,2017-09,02-3396-4744,37.56620700,127.00149300,2019-05-28
"서울특별시 중구",서울특별시 중구 동호로37길 31 (주교동),서울특별시 중구 주교동 19-12,생활방범,1,200,방산종합시장삼거리,30,2017-09,02-3396-4744,37.56849850,127.00010777,2019-05-28
"서울특별시 중구",서울특별시 중구 을지로27길 11 (주교동),서울특별시 중구 주교동 213,생활방범,1,200,영주카드 앞,30,2015-12,02-3396-4744,37.56729944,126.99906439,2019-05-28
"서울특별시 중구",서울특별시 중구 을지로27길 20 (주교동),서울특별시 중구 주교동 236,생활방범,2,200,삼거리 방범초소 옆,30,2016-05,02-3396-4744,37.56779692,126.99909657,2019-05-28
"서울특별시 중구",서울특별시 중구 을지로35길 25 (주교동),서울특별시 중구 주교동 315-4,생활방범,1,200,미원벽지 삼거리,30,2017-09,02-3396-4744,37.56790748,127.00108677,2019-05-28
"서울특별시 중구",서울특별시 중구 퇴계로51길 3 (충무로5가),서울특별시 중구 충무로5가 9-8,생활방범,2,130,이륜모터스 앞 사거리,30,2012-06,02-3396-4744,37.56332792,127.00170904,2019-05-28
"서울특별시 중구",서울특별시 중구 퇴계로49길 35 (충무로5가),서울특별시 중구 충무로5가 19-1,생활방범,4,200,서울식품 슈퍼 앞,30,2016-12,02-3396-4744,37.56301751,126.99910730,2019-05-28
"서울특별시 중구",서울특별시 중구 퇴계로45길 22-24 (충무로5가),서울특별시 중구 충무로5가 36-1,생활방범,4,200,세븐일레븐앞,30,2016-12,02-3396-4744,37.56366598,127.00044036,2019-05-28
"서울특별시 중구",서울특별시 중구 마른내로12길 17-19,서울특별시 중구 충무로5가 22-3,생활방범,1,200,대아인쇄 앞,30,2018-10,02-3396-4744,37.56370000,127.00120000,2019-05-28
"서울특별시 중구",서울특별시 중구 을지로30길 36 (예관동),서울특별시 중구 예관동 1-4,생활방범,3,200,중부시장상인연합회 앞 삼거리,30,2018-10,02-3396-4744,37.56557096,126.99898928,2019-05-28
"서울특별시 중구",서울특별시 중구 퇴계로 265,서울특별시 중구 충무로5가8-8,생활방범,2,200,충무로지하보도,30,2015-11,02-3396-4744,37.56284100,127.00113300,2019-05-28
"서울특별시 중구",서울특별시 중구 마장로1길 25 (신당동),서울특별시 중구 신당동 213-44,생활방범,1,200,수협은행옆,30,2014-11,02-3396-4744,37.56893008,127.01212406,2019-05-28
"서울특별시 중구",서울특별시 중구 청계천로 318 (신당동),서울특별시 중구 신당동 217-95,생활방범,1,200,동평화시장 1-1출구앞,30,2016-12,02-3396-4744,37.56930212,127.01415718,2019-05-28
"서울특별시 중구",서울특별시 중구 퇴계로 350 (신당동),서울특별시 중구 신당동 228-17,생활방범,1,200,광희문삼거리 옆,30,2014-11,02-3396-4744,37.56437823,127.01033771,2019-05-28
"서울특별시 중구",서울특별시 중구 청구로24길 15-1 (신당동),서울특별시 중구 신당동 231-8,생활방범,2,200,서민보호구역내 골목사거리,30,2018-10,02-3396-4744,37.56370425,127.01095462,2019-05-28
"서울특별시 중구",서울특별시 중구 다산로39길 55 (신당동),서울특별시 중구 신당동 233-2,생활방범,3,200,아크릴 앞,30,2017-09,02-3396-4744,37.56460997,127.01294214,2019-05-28
"서울특별시 중구",서울특별시 중구 다산로31길 50 (신당동),서울특별시 중구 신당동 236-10,생활방범,4,200,주택가 사거리,30,2017-09,02-3396-4744,37.56262204,127.01189607,2019-05-28
"서울특별시 중구",서울특별시 중구 다산로29길 63 (신당동),서울특별시 중구 신당동 236-81,생활방범,1,200,제선한의원,30,2017-09,02-3396-4744,37.56212452,127.01093048,2019-05-28
"서울특별시 중구",서울특별시 중구 퇴계로70길 5 (신당동),서울특별시 중구 신당동 236-123,생활방범,3,200,주택가 삼거리,30,2017-09,02-3396-4744,37.56439949,127.01131135,2019-05-28
"서울특별시 중구",서울특별시 중구 다산로33길 74-22,서울특별시 중구 신당동 236-150,생활방범,2,200,골목길 보안등주,30,2018-10,02-3396-4744,37.56412000,127.01140000,2019-05-28
"서울특별시 중구",서울특별시 중구 다산로33가길 17 (신당동),서울특별시 중구 신당동 241-26,생활방범,1,200,동화공원 사거리,30,2014-11,02-3396-4744,37.56314082,127.01436371,2019-05-28
"서울특별시 중구",서울특별시 중구 퇴계로 381-1 (신당동),서울특별시 중구 신당동 249-69,생활방범,1,200,패밀리마트,30,2014-11,02-3396-4744,37.56526481,127.01416790,2019-05-28
"서울특별시 중구",서울특별시 중구 퇴계로73길 43 (신당동),서울특별시 중구 신당동 251-153,생활방범,1,200,센스악세사리 사거리,30,2014-11,02-3396-4744,37.56719101,127.01381117,2019-05-28
"서울특별시 중구",서울특별시 중구 다산로33다길 3 (신당동),서울특별시 중구 신당동 304-93,생활방범,4,200,부일약국,30,2015-12,02-3396-4744,37.56277725,127.01324254,2019-05-28
"서울특별시 중구",서울특별시 중구 다산로33라길 6 (신당동),서울특별시 중구 신당동 304-286,생활방범,1,200,주택가 사거리-신성목욕탕,30,2016-12,02-3396-4744,37.56335769,127.01317817,2019-05-28
"서울특별시 중구",서울특별시 중구 청구로12길 32 (신당동),서울특별시 중구 신당동 304-370,생활방범,1,200,주택가 전봇대 옆,30,2016-12,02-3396-4744,37.56194167,127.01317549,2019-05-28
"서울특별시 중구",서울특별시 중구 청구로22길 22 (신당동),서울특별시 중구 신당동 304-610,생활방범,2,200,명지빌딩 앞,30,2016-12,02-3396-4744,37.56317272,127.01109409,2019-05-28
"서울특별시 중구",서울특별시 중구 다산로29길 9 (신당동),서울특별시 중구 신당동 304-693,생활방범,4,200,바이더웨이 부근,30,2015-12,02-3396-4744,37.56092961,127.01331228,2019-05-28
"서울특별시 중구",서울특별시 중구 청구로 98 (신당동),서울특별시 중구 신당동 387-45,생활방범,4,200,패밀리마트앞,30,2017-09,02-3396-4744,37.56091685,127.01176196,2019-05-28
"서울특별시 중구",서울특별시 중구 퇴계로76길 39 (무학동),서울특별시 중구 무학동 27,생활방범,1,200,떡복이 골목,30,2018-02,02-3396-4744,37.56342147,127.01514959,2019-05-28
"서울특별시 중구",서울특별시 중구 퇴계로 394 (무학동),서울특별시 중구 무학동 43,생활방범,1,200,세븐일레븐 옆,30,2013-02,02-3396-4744,37.56427617,127.01543659,2019-05-28
"서울특별시 중구",서울특별시 중구 다산로48길 13 (흥인동),서울특별시 중구 흥인동 12-20,생활방범,1,200,우일타운 삼거리,30,2016-12,02-3396-4744,37.56717825,127.01688498,2019-05-28
"서울특별시 중구",서울특별시 중구 다산로 265 (흥인동),서울특별시 중구 흥인동 156,생활방범,1,200,광희초교 옆,30,2014-11,02-3396-4744,37.56673179,127.01568872,2019-05-28
"서울특별시 중구",서울특별시 중구 다산로 269,서울특별시 중구 신당동 254-16,생활방범,2,200,광희초교 정문 앞,30,2018-02,02-3396-4744,37.56715200,127.01586600,2019-05-28
"서울특별시 중구",서울특별시 중구 마장로9길 49-19 (황학동),서울특별시 중구 황학동 163-13,생활방범,4,200,공구상가길,30,2017-09,02-3396-4744,37.57020352,127.01824218,2019-05-28
"서울특별시 중구",서울특별시 중구 퇴계로83길 22 (황학동),서울특별시 중구 황학동 371-1,생활방범,3,130,중앙시장 뒷골목,30,2011-09,02-3396-4744,37.56673391,127.01854795,2019-05-28
"서울특별시 중구",서울특별시 중구 퇴계로87길 43 (황학동),서울특별시 중구 황학동 551-1,생활방범,2,130,중앙순대국 사거리,30,2012-06,02-3396-4744,37.56753542,127.02095121,2019-05-28
"서울특별시 중구",서울특별시 중구 퇴계로87길 22 (황학동),서울특별시 중구 황학동 669,생활방범,4,200,문방구옆,30,2017-09,02-3396-4744,37.56636823,127.02109873,2019-05-28
"서울특별시 중구",서울특별시 중구 퇴계로 439 (황학동),서울특별시 중구 황학동 715,생활방범,3,200,기업은행 후문 앞 사거리,30,2014-11,02-3396-4744,37.56612161,127.02060789,2019-05-28
"서울특별시 중구",서울특별시 중구 퇴계로83길 5 (황학동),서울특별시 중구 황학동 740,생활방범,3,200,신당역1번출구 LG텔레콤 앞,30,2016-12,02-3396-4744,37.56571553,127.01856673,2019-05-28
"서울특별시 중구",서울특별시 중구 마장로 72 (흥인동),서울특별시 중구 흥인동 2-1,생활방범,4,200,흥인대로 CCTV,30,2014-11,02-3396-4744,37.56812700,127.01782500,2019-05-28
"서울특별시 중구",서울특별시 중구 마장로 76 (흥인동),서울특별시 중구 황학동 155,생활방범,1,200,대신가구 앞 간판주,30,2018-10,02-3396-4744,37.56818380,127.01834100,2019-05-28
"서울특별시 중구",서울특별시 중구 난계로11길 8 (황학동),서울특별시 중구 황학동 811,생활방범,3,200,대성슈퍼앞,30,2017-09,02-3396-4744,37.56584310,127.02295482,2019-05-28
"서울특별시 중구",서울특별시 중구 난계로13길 22 (황학동),서울특별시 중구 황학동 973,생활방범,4,200,주택가 앞 삼거리,30,2017-09,02-3396-4744,37.56740786,127.02227890,2019-05-28
"서울특별시 중구",서울특별시 중구 마장로 89 (황학동),서울특별시 중구 황학동 1205,생활방범,4,200,중앙시장 후문 앞,30,2014-11,02-3396-4744,37.56835393,127.01966643,2019-05-28
"서울특별시 중구",서울특별시 중구 마장로15길 16 (황학동),서울특별시 중구 황학동 1459,생활방범,4,200,코사마트 및 어린이집,30,2014-11,02-3396-4744,37.56891519,127.02184975,2019-05-28
"서울특별시 중구",서울특별시 중구 난계로21길 33 (황학동),서울특별시 중구 황학동 1523,생활방범,4,200,이마트옆 골목 주택가 사거리,30,2012-06,02-3396-4744,37.57015675,127.02172905,2019-05-28
"서울특별시 중구",서울특별시 중구 난계로17길 40 (황학동),서울특별시 중구 황학동 1749,생활방범,4,200,서울중구교회 사거리,30,2018-06,02-3396-4744,37.56953810,127.02102095,2019-05-28
"서울특별시 중구",서울특별시 중구 난계로17길 65 (황학동),서울특별시 중구 황학동 2070,생활방범,3,200,삼거리 그릇가게앞,30,2017-09,02-3396-4744,37.56954023,127.01962084,2019-05-28
"서울특별시 중구",서울특별시 중구 퇴계로 453 (황학동),서울특별시 중구 황학동 2475,생활방범,1,200,아크로타워 앞 대로,30,2017-09,02-3396-4744,37.56563900,127.02142060,2019-05-28
"서울특별시 중구",서울특별시 중구 장충단로10길 38 (광희동2가),서울특별시 중구 광희동2가 213-1,생활방범,3,200,주택가 삼거리,30,2017-09,02-3396-4744,37.56338533,127.00901002,2019-05-28
"서울특별시 중구",서울특별시 중구 장충단로10길 11 (광희동2가),서울특별시 중구 광희동2가 303-42,생활방범,3,200,주차장앞 삼거리,30,2016-05,02-3396-4744,37.56337045,127.00755894,2019-05-28
"서울특별시 중구",서울특별시 중구 퇴계로76길 68,서울특별시 중구 신당동 304-697,어린이보호,4,200,무학치안센터 옆,30,2018-10,02-3396-4744,37.56230500,127.01430500,2019-05-28
"서울특별시 중구",서울특별시 중구 장충단로8길 65 (신당동),서울특별시 중구 신당동 304-848,생활방범,1,200,신당약국앞,30,2013-02,02-3396-4744,37.56208200,127.01027400,2019-05-28
"서울특별시 중구",서울특별시 중구 퇴계로336-7,서울특별시 중구 광희동2가188,생활방범,4,200,빌라골목,30,2015-12,02-3396-4744,37.56398700,127.00898200,2019-05-28
"서울특별시 중구",서울특별시 중구 퇴계로83길40-10,서울특별시 중구 황학동220,생활방범,5,200,미니마트앞,30,2015-12,02-3396-4744,37.56729400,127.01886600,2019-05-28
"서울특별시 중구",서울특별시 중구 동호로11길 54 (신당동),서울특별시 중구 다산동 353-3,생활방범,1,200,패밀리마트 골목,30,2014-11,02-3396-4744,37.55309627,127.00849235,2019-05-28
"서울특별시 중구",서울특별시 중구 동호로11길 88-2 (신당동),서울특별시 중구 다산동 353-33,생활방범,2,200,각산타운사거리,30,2017-04,02-3396-4744,37.55163327,127.00746506,2019-05-28
"서울특별시 중구",서울특별시 중구 동호로11나길 7 (신당동),서울특별시 중구 다산동 353-37,생활방범,1,200,팔각정앞,30,2013-02,02-3396-4744,37.55253702,127.00773329,2019-05-28
"서울특별시 중구",서울특별시 중구 동호로11길 22 (신당동),서울특별시 중구 다산동 361-18,생활방범,1,200,희망공인중개사 앞,30,2015-12,02-3396-4744,37.55412545,127.00948477,2019-05-28
"서울특별시 중구",서울특별시 중구 다산로 141 (신당동),서울특별시 중구 다산동 370-61,생활방범,1,130,양봉농협뒤 공용주차장사거리,30,2012-06,02-3396-4744,37.55652611,127.01121747,2019-05-28
"서울특별시 중구",서울특별시 중구 다산로21길 24 (신당동),서울특별시 중구 다산동 377-103,생활방범,1,200,호림마트앞,30,2013-02,02-3396-4744,37.55817187,127.01118261,2019-05-28
"서울특별시 중구",서울특별시 중구 다산로15길 19 (신당동),서울특별시 중구 다산동 377-127,생활방범,1,200,약수공영주차장옆 골목,30,2015-12,02-3396-4744,37.55697051,127.01074272,2019-05-28
"서울특별시 중구",서울특별시 중구 청구로17길 40 (신당동),서울특별시 중구 다산동 386-86,생활방범,1,200,장충초등학교 정문,30,2014-11,02-3396-4744,37.55941148,127.01176733,2019-05-28
"서울특별시 중구",서울특별시 중구 청구로17길 28-29,서울특별시 중구 신당동 386-58,생활방범,3,200,,30,2018-10,02-3396-4744,37.55982971,127.01217650,2019-05-28
"서울특별시 중구",서울특별시 중구 동호로20길 85 (신당동),서울특별시 중구 다산동 399-33,생활방범,1,200,경기공업사 앞 사거리,30,2017-09,02-3396-4744,37.56156534,127.00967789,2019-05-28
"서울특별시 중구",서울특별시 중구 청구로17길 20 (신당동),서울특별시 중구 다산동 402-16,생활방범,1,200,싱싱마트 앞,30,2016-12,02-3396-4744,37.56022158,127.01182902,2019-05-28
"서울특별시 중구",서울특별시 중구 동호로20길 34-29 (신당동),서울특별시 중구 다산동 405-1,생활방범,1,200,마로케트앞 골목 사거리,30,2016-12,02-3396-4744,37.56024922,127.01036721,2019-05-28
"서울특별시 중구",서울특별시 중구 동호로20길 36 (신당동),서울특별시 중구 다산동 405-16,생활방범,1,200,천주교신당교회 부근,30,2016-12,02-3396-4744,37.55950929,127.00913072,2019-05-28
"서울특별시 중구",서울특별시 중구 동호로20길 34-10 (신당동),서울특별시 중구 다산동 406-2,생활방범,1,200,동신상사 앞,30,2013-02,02-3396-4744,37.55911800,127.00987200,2019-05-28
"서울특별시 중구",서울특별시 중구 동호로20다길 26 (신당동),서울특별시 중구 다산동 413-3,생활방범,1,200,주택가 앞,30,2016-12,02-3396-4744,37.55848869,127.01007754,2019-05-28
"서울특별시 중구",서울특별시 중구 동호로14길 11-7 (신당동),서울특별시 중구 다산동 423-1,생활방범,1,200,그린피아빌,30,2017-09,02-3396-4744,37.55653674,127.01031893,2019-05-28
"서울특별시 중구",서울특별시 중구 동호로15가길 15-3 (신당동),서울특별시 중구 다산동 432-22,생활방범,1,200,주택가 앞,30,2017-09,02-3396-4744,37.55534174,127.00782448,2019-05-28
"서울특별시 중구",서울특별시 중구 동호로15길 50 (신당동),서울특별시 중구 다산동 432-24,생활방범,1,200,다산동 어린이집 후문,30,2016-12,02-3396-4744,37.55429556,127.00800687,2019-05-28
"서울특별시 중구",서울특별시 중구 동호로15길 50 (신당동),서울특별시 중구 다산동 432-24,생활방범,1,200,다산어린이집 앞 공원,30,2014-11,02-3396-4744,37.55404677,127.00830460,2019-05-28
"서울특별시 중구",서울특별시 중구 동호로15길 103 (신당동),서울특별시 중구 다산동 432-73,생활방범,1,200,비전빌라트1동 앞,30,2013-02,02-3396-4744,37.55389793,127.00754553,2019-05-28
"서울특별시 중구",서울특별시 중구 동호로11나길 47 (신당동),서울특별시 중구 다산동 432-462,생활방범,1,200,충현공영주차장 앞,30,2016-12,02-3396-4744,37.55225633,127.00574040,2019-05-28
"서울특별시 중구",서울특별시 중구 동호로11마길 34,서울특별시 중구 신당동 432-921,생활방범,1,200,계단 전신주 옆,30,2013-02,02-3396-4744,37.55072700,127.00577900,2019-05-28
"서울특별시 중구",서울특별시 중구 동호로11라길 13 (신당동),서울특별시 중구 다산동 432-518,생활방범,1,200,하나세탁소 앞,30,2016-12,02-3396-4744,37.55219253,127.00668454,2019-05-28
"서울특별시 중구",서울특별시 중구 동호로11마길 20-14 (신당동),서울특별시 중구 다산동 432-521,생활방범,1,200,주택가-묘각사입구,30,2017-09,02-3396-4744,37.55108890,127.00589061,2019-05-28
"서울특별시 중구",서울특별시 중구 다산로 67-5 (신당동),서울특별시 중구 다산동 432-710,생활방범,1,200,다세대주택가앞,30,2017-09,02-3396-4744,37.55058917,127.00724244,2019-05-28
"서울특별시 중구",서울특별시 중구 동호로15가길 33-1 (신당동),서울특별시 중구 다산동 432-762,생활방범,1,200,주택가 골목,30,2016-05,02-3396-4744,37.55478038,127.00714320,2019-05-28
"서울특별시 중구",서울특별시 중구 동호로17길 261 (신당동),서울특별시 중구 다산동 432-1696,생활방범,1,200,정맥프린스빌라 앞,30,2013-02,02-3396-4744,37.54907934,127.00575382,2019-05-28
"서울특별시 중구",서울특별시 중구 동호로11마길 52 (신당동),서울특별시 중구 다산동 432-1976,생활방범,1,200,청솔마트 맞은편,30,2013-02,02-3396-4744,37.55071038,127.00496256,2019-05-28
"서울특별시 중구",서울특별시 중구 동호로11바길 42-1 (신당동),서울특별시 중구 다산동 432-2013,생활방범,1,200,우석아파트 301호앞,30,2017-09,02-3396-4744,37.55026382,127.00546682,2019-05-28
"서울특별시 중구",서울특별시 중구 동호로17길 123 (신당동),서울특별시 중구 다산동 432-2292,생활방범,1,200,성곽길 서울회관 뒤 입구,30,2015-12,02-3396-4744,37.55381074,127.00447172,2019-05-28
"서울특별시 중구",서울특별시 중구 동호로15길 130-2 (신당동),서울특별시 중구 다산동 432-2824,생활방범,1,200,창원하이트앞 골목 사거리,30,2015-12,02-3396-4744,37.55493560,127.00797737,2019-05-28
"서울특별시 중구",서울특별시 중구 동호로17길 65-11 (신당동),서울특별시 중구 다산동 824-8,생활방범,1,200,주택가골목 사거리,30,2017-09,02-3396-4744,37.55523542,127.00673550,2019-05-28
"서울특별시 중구",서울특별시 중구 동호로8나길 35 (신당동),서울특별시 중구 약수동 309-75,생활방범,1,200,"이어식품앞, 중구시설관리공단",30,2017-02,02-3396-4744,37.55233075,127.01358855,2019-05-28
"서울특별시 중구",서울특별시 중구 동호로8가길 43 (신당동),서울특별시 중구 약수동 346-452,생활방범,1,200,주택가앞,30,2017-09,02-3396-4744,37.55388942,127.01440394,2019-05-28
"서울특별시 중구",서울특별시 중구 동호로8가길 27,서울특별시 중구 신당동 349-132,생활방범,2,200,전봇대 옆,30,2017-09,02-3396-4744,37.55326000,127.01411300,2019-05-28
"서울특별시 중구","서울특별시 중구 동호로8라길 8 (신당동, 성광빌라)",서울특별시 중구 약수동 346-489,생활방범,1,200,각산타운앞,30,2016-12,02-3396-4744,37.55327914,127.01461583,2019-05-28
"서울특별시 중구",서울특별시 중구 동호로8가길 1 (신당동),서울특별시 중구 약수동 349-190,생활방범,1,200,갤러리예술공간앞,30,2014-11,02-3396-4744,37.55361511,127.01264441,2019-05-28
"서울특별시 중구",서울특별시 중구 동호로8나길 15 (신당동),서울특별시 중구 약수동 349-245,생활방범,1,200,마을마당 앞 장수빌라,30,2016-12,02-3396-4744,37.55267736,127.01279730,2019-05-28
"서울특별시 중구",서울특별시 중구 다산로 96 (신당동),서울특별시 중구 약수동 366-106,생활방범,1,200,나이스피부과옆,30,2013-02,02-3396-4744,37.55258592,127.00921923,2019-05-28
"서울특별시 중구",서울특별시 중구 동호로7길 26 (신당동),서울특별시 중구 약수동 366-74,생활방범,2,130,약수시장 사거리,30,2012-06,02-3396-4744,37.55263909,127.01075613,2019-05-28
"서울특별시 중구",서울특별시 중구 다산로6길 22 (신당동),서울특별시 중구 약수동 366-85,생활방범,1,200,소방파출소 옆,30,2016-12,02-3396-4744,37.55215426,127.00896978,2019-05-28
"서울특별시 중구",서울특별시 중구 다산로4길 10 (신당동),서울특별시 중구 약수동 366-142,생활방범,1,200,덕성빌라 앞 삼거리,30,2018-02,02-3396-4744,37.54954931,127.00788081,2019-05-28
"서울특별시 중구",서울특별시 중구 다산로10길 10-33 (신당동),서울특별시 중구 약수동 368-75,생활방범,2,200,약수경로당 앞,30,2016-05,02-3396-4744,37.55299207,127.01020628,2019-05-28
"서울특별시 중구",서울특별시 중구 동호로 171 (신당동),서울특별시 중구 약수동 372-3,생활방범,1,200,다나약국 앞 사거리,30,2014-11,02-3396-4744,37.55333655,127.01115310,2019-05-28
"서울특별시 중구",서울특별시 중구 다산로8길 35-2 (신당동),서울특별시 중구 약수동 372-102,생활방범,1,200,약수교회옆,30,2016-12,02-3396-4744,37.55250725,127.01159298,2019-05-28
"서울특별시 중구","서울특별시 중구 다산로 32 (신당동, 남산타운아파트)",서울특별시 중구 약수동 844-9,생활방범,1,200,남산타운아파트 23동앞,30,2016-12,02-3396-4744,37.54812452,127.01090634,2019-05-28
"서울특별시 중구",서울특별시 중구 청구로3가길 10 (신당동),서울특별시 중구 청구동 330-343,생활방범,1,200,주택가 앞,30,2016-12,02-3396-4744,37.55835473,127.01576650,2019-05-28
"서울특별시 중구",서울특별시 중구 청구로3길 35-7 (신당동),서울특별시 중구 청구동 330-376,생활방범,1,200,주택가 앞,30,2016-12,02-3396-4744,37.55790183,127.01550364,2019-05-28
"서울특별시 중구",서울특별시 중구 다산로28가길 12 (신당동),서울특별시 중구 청구동 330-383,생활방범,1,200,골목길 입구,30,2016-12,02-3396-4744,37.55924138,127.01422960,2019-05-28
"서울특별시 중구",서울특별시 중구 다산로20길 35 (신당동),서울특별시 중구 청구동 333-41,생활방범,1,200,구립경로당 부근,30,2013-02,02-3396-4744,37.55667070,127.01422423,2019-05-28
"서울특별시 중구",서울특별시 중구 다산로22길 18 (신당동),서울특별시 중구 청구동 333-111,생활방범,1,200,이현정 헤어앞,30,2015-12,02-3396-4744,37.55734474,127.01340616,2019-05-28
"서울특별시 중구",서울특별시 중구 다산로24길 58 (신당동),서울특별시 중구 청구동 333-293,생활방범,1,200,롯데우유앞,30,2015-12,02-3396-4744,37.55699603,127.01553583,2019-05-28
"서울특별시 중구",서울특별시 중구 다산로24가길 8 (신당동),서울특별시 중구 청구동 333-294,생활방범,1,200,약수하이츠후문 마을마당옆,30,2015-12,02-3396-4744,37.55690247,127.01582015,2019-05-28
"서울특별시 중구",서울특별시 중구 매봉18길 109 (신당동),서울특별시 중구 청구동 333-772,생활방범,2,200,동산초등학교 정문앞,30,2018-10,02-3396-4744,37.55597327,127.01738656,2019-05-28
"서울특별시 중구",서울특별시 중구 동호로10길 69 (신당동),서울특별시 중구 청구동 340-34,생활방범,1,200,왕호체육관 앞,30,2017-09,02-3396-4744,37.55670260,127.01302797,2019-05-28
"서울특별시 중구",서울특별시 중구 다산로16길 38 (신당동),서울특별시 중구 청구동 346-402,생활방범,1,200,연세우유앞 방범초소,30,2017-09,02-3396-4744,37.55597539,127.01381922,2019-05-28
"서울특별시 중구",서울특별시 중구 동호로10길 39 (신당동),서울특별시 중구 청구동 347-359,생활방범,1,130,스리랑카대사관 사거리,30,2012-06,02-3396-4744,37.55543530,127.01225281,2019-05-28
"서울특별시 중구",서울특별시 중구 청구로1길 23 (신당동),서울특별시 중구 청구동 843,생활방범,1,200,삼성아파트 입구,30,2013-02,02-3396-4744,37.55847380,127.01665163,2019-05-28
"서울특별시 중구",서울특별시 중구 다산로 168 (신당동),서울특별시 중구 청구동 333-165,어린이보호,1,130,청구초등학교,30,2012-09,02-3396-4744,37.55855460,127.01322377,2019-05-28
"서울특별시 중구",서울특별시 중구 동호로7길 47-7 (신당동),서울특별시 중구 약수동 372-450,어린이보호,1,130,한솔어린이집,30,2012-09,02-3396-4744,37.55148400,127.01120600,2019-05-28
"서울특별시 중구","서울특별시 중구 다산로 32 (신당동, 남산타운아파트7동 뒤편)",서울특별시 중구 약수동 산37-224,어린이보호,1,130,구립신당3동 어린이집,30,2012-09,02-3396-4744,37.54637300,127.00865700,2019-05-28
"서울특별시 중구",서울특별시 중구 다산로 32 (신당동),서울특별시 중구 약수동 844-1,어린이보호,5,200,수암유치원앞,30,2018-10,02-3396-4744,37.54956200,127.01217400,2019-05-28
"서울특별시 중구",서울특별시 중구 동호로10길 27 (신당동),서울특별시 중구 청구동 347-298,어린이보호,1,130,신일교회입구,30,2012-09,02-3396-4744,37.55501428,127.01199532,2019-05-28
"서울특별시 중구",서울특별시 중구 동호로11아길 28-7 (신당동),서울특별시 중구 다산동 432-1918,생활방범,2,200,마루소공원앞,30,2017-02,02-3396-4744,37.55118700,127.00453000,2019-05-28
"서울특별시 중구",서울특별시 중구 동호로 10길 8-8,서울특별시 중구 청구동 349-272,생활방범,4,200,메이폴프리앞,30,2014-01,02-3396-4744,37.55424300,127.01216000,2019-05-28
"서울특별시 중구",서울특별시 중구 청구로 3길 54,서울특별시 중구 청구동 333-204,생활방범,5,200,서울크리닝앞,30,2014-01,02-3396-4744,37.55735400,127.01461700,2019-05-28
"서울특별시 중구",서울특별시 중구 다산로21길11,서울특별시 중구 신당동379-10,어린이보호,5,200,삼원부동산앞,30,2015-12,02-3396-4744,37.55794700,127.01164900,2019-05-28
"서울특별시 중구",서울특별시 중구 동호로17길123-15,서울특별시 중구 신당동432-1826,생활방범,4,200,장원중학교 뒤 주택가,30,2015-12,02-3396-4744,37.55350800,127.00508200,2019-05-28
"서울특별시 중구",서울특별시 중구 다산로28길10,서울특별시 중구 신당동309-257,생활방범,5,200,세탁소앞오거리,30,2015-12,02-3396-4744,37.55966800,127.01411900,2019-05-28
"서울특별시 중구",서울특별시 중구 퇴계로88나길 23 (신당동),서울특별시 중구 신당5동 67-32,생활방범,1,200,한일교회 부근,30,2016-12,02-3396-4744,37.56253487,127.02061594,2019-05-28
"서울특별시 중구",서울특별시 중구 퇴계로90길 58 (신당동),서울특별시 중구 신당5동 80-32,생활방범,1,200,화성슈퍼 앞,30,2016-12,02-3396-4744,37.56285167,127.02159494,2019-05-28
"서울특별시 중구",서울특별시 중구 다산로36가길 61 (신당동),서울특별시 중구 신당5동 80-68,생활방범,1,200,주택가 앞 사거리,30,2017-09,02-3396-4744,37.56193742,127.02144474,2019-05-28
"서울특별시 중구",서울특별시 중구 난계로 127-1 (신당동),서울특별시 중구 신당5동 85-110,생활방범,3,200,아트문구 앞,30,2016-12,02-3396-4744,37.56328965,127.02391237,2019-05-28
"서울특별시 중구",서울특별시 중구 다산로42길 17 (신당동),서울특별시 중구 신당5동 111-1,생활방범,4,200,신당사거리 공영주차장앞,30,2017-09,02-3396-4744,37.56485872,127.01684475,2019-05-28
"서울특별시 중구",서울특별시 중구 다산로44길 33 (신당동),서울특별시 중구 신당5동 120-26,생활방범,1,200,신당팥죽집 앞,30,2016-12,02-3396-4744,37.56506708,127.01881886,2019-05-28
"서울특별시 중구",서울특별시 중구 다산로40길 38 (신당동),서울특별시 중구 신당5동 123-1,생활방범,4,200,다산공원,30,2014-11,02-3396-4744,37.56351290,127.01829582,2019-05-28
"서울특별시 중구",서울특별시 중구 다산로42길 55 (신당동),서울특별시 중구 신당5동 132-9,생활방범,2,200,다산공원 옆,30,2018-05,02-3396-4744,37.56420601,127.01924533,2019-05-28
"서울특별시 중구",서울특별시 중구 퇴계로88길 8-2 (신당동),서울특별시 중구 신당5동 140-26,생활방범,4,200,오거리슈퍼 앞,30,2017-09,02-3396-4744,37.56506496,127.02127576,2019-05-28
"서울특별시 중구",서울특별시 중구 다산로44길 53,서울특별시 중구 신당5동 140-34,생활방범,4,200,삼원상가 앞,30,2018-10,02-3396-4744,37.56507133,127.01971740,2019-05-28
"서울특별시 중구",서울특별시 중구 퇴계로90길 18 (신당동),서울특별시 중구 신당5동 151-16,생활방범,3,200,하나더마트 삼거리,30,2016-05,02-3396-4744,37.56442288,127.02206165,2019-05-28
"서울특별시 중구",서울특별시 중구 다산로42길 79 (신당동),서울특별시 중구 신당5동 154-28,생활방범,4,200,오토바이가게앞,30,2016-12,02-3396-4744,37.56378929,127.02044159,2019-05-28
"서울특별시 중구",서울특별시 중구 퇴계로90길 36 (신당동),서울특별시 중구 신당5동 154-47,생활방범,4,200,성동고교,30,2018-07,02-3396-4744,37.56364259,127.02182829,2019-05-28
"서울특별시 중구",서울특별시 중구 퇴계로88가길 9 (신당동),서울특별시 중구 신당5동 155-17,생활방범,3,200,종합부동산 앞,30,2014-11,02-3396-4744,37.56343423,127.02074468,2019-05-28
"서울특별시 중구",서울특별시 중구 퇴계로88가길 48 (신당동),서울특별시 중구 신당5동 165-10,생활방범,4,200,새로나슈퍼앞 사거리,30,2017-09,02-3396-4744,37.56301751,127.02285022,2019-05-28
"서울특별시 중구",서울특별시 중구 퇴계로88가길 48-21 (신당동),서울특별시 중구 신당5동 166-11,생활방범,3,200,삼거리 인도,30,2018-10,02-3396-4744,37.56211177,127.02304870,2019-05-28
"서울특별시 중구",서울특별시 중구 다산로44길 119 (신당동),서울특별시 중구 신당5동 170-4,생활방범,4,200,신당초교 정문앞,30,2018-01,02-3396-4744,37.56454406,127.02379972,2019-05-28
"서울특별시 중구",서울특별시 중구 왕십리로39길 19 (신당동),서울특별시 중구 신당5동 653,생활방범,3,200,주택앞 삼거리,30,2017-09,02-3396-4744,37.56408057,127.02584624,2019-05-28
"서울특별시 중구",서울특별시 중구 왕십리로37길 18 (신당동,서울특별시 중구 신당5동 713,생활방범,1,200,주택가 앞,30,2017-09,02-3396-4744,37.56405931,127.02650607,2019-05-28
"서울특별시 중구",서울특별시 중구 다산로36가길 13 (신당동),서울특별시 중구 동화동 52-7,생활방범,2,200,공영주차장길,30,2016-12,02-3396-4744,37.56157384,127.01874107,2019-05-28
"서울특별시 중구",서울특별시 중구 다산로40길 56 (신당동),서울특별시 중구 동화동 52-13,생활방범,4,200,기업은행앞,30,2013-02,02-3396-4744,37.56317059,127.01919168,2019-05-28
"서울특별시 중구",서울특별시 중구 다산로38길 51 (신당동),서울특별시 중구 동화동 52-232,생활방범,4,200,태영호시 앞,30,2016-12,02-3396-4744,37.56251148,127.01826632,2019-05-28
"서울특별시 중구",서울특별시 중구 다산로36가길 26-14 (신당동),서울특별시 중구 동화동 57-587,생활방범,3,200,레미안 임대 201동옆,30,2018-10,02-3396-4744,37.56074888,127.02081978,2019-05-28
"서울특별시 중구",서울특별시 중구 다산로36가길 26 (신당동),서울특별시 중구 동화동 62-86,생활방범,4,200,박정희가옥 앞,30,2014-11,02-3396-4744,37.56133996,127.02001244,2019-05-28
"서울특별시 중구",서울특별시 중구 다산로38길 21 (신당동),서울특별시 중구 동화동 276-5,생활방범,4,200,다래원 앞 사거리,30,2018-10,02-3396-4744,37.56302814,127.01679111,2019-05-28
"서울특별시 중구",서울특별시 중구 다산로42나길 49 (신당동),서울특별시 중구 동화동 280-3,생활방범,3,200,파라다이스아파트골목,30,2012-06,02-3396-4744,37.56228611,127.01750457,2019-05-28
"서울특별시 중구",서울특별시 중구 다산로36길 30 (신당동),서울특별시 중구 동화동 282-5,생활방범,4,200,파라다이스아파트앞,30,2013-02,02-3396-4744,37.56210326,127.01683670,2019-05-28
"서울특별시 중구",서울특별시 중구 다산로32길 14 (신당동),서울특별시 중구 동화동 288-5,생활방범,4,200,홍인초교 후문 앞,30,2018-10,02-3396-4744,37.56105293,127.01501280,2019-05-28
"서울특별시 중구",서울특별시 중구 청구로4길 39 (신당동),서울특별시 중구 동화동 290-50,생활방범,1,200,우리신용정보앞 사거리,30,2014-11,02-3396-4744,37.56166952,127.01591671,2019-05-28
"서울특별시 중구",서울특별시 중구 다산로32길 29 (신당동),서울특별시 중구 동화동 290-131,생활방범,2,200,재개발지역,30,2013-02,02-3396-4744,37.56074250,127.01595694,2019-05-28
"서울특별시 중구",서울특별시 중구 다산로36길 11 (신당동),서울특별시 중구 동화동 291-48,생활방범,1,200,동산빌딩 - 홈플러스사거리,30,2018-02,02-3396-4744,37.56278576,127.01596767,2019-05-28
"서울특별시 중구",서울특별시 중구 퇴계로86가길 36 (신당동),서울특별시 중구 동화동 62-45,어린이보호,1,130,신당6동 어린이집,30,2012-09,02-3396-4744,37.56172480,127.01934460,2019-05-28
"서울특별시 중구",서울특별시 중구 퇴계로88다길 5 (신당동),서울특별시 중구 신당5동 67-137,어린이보호,3,200,한일유치원,30,2018-10,02-3396-4744,37.56297073,127.01988101,2019-05-28
"서울특별시 중구",서울특별시 중구 퇴계로86길 96,서울특별시 중구 동화동 49-26,생활방범,4,200,뒤셀도르프 뒤,30,2018-02,02-3396-4744,37.56230700,127.01813300,2019-05-28
"서울특별시 중구",서울특별시 중구 왕십리로 39길 15,서울특별시 중구 신당5동 612,생활방범,4,200,로얄하이츠 앞,30,2014-01,02-3396-4744,37.56414000,127.02585700,2019-05-28
"서울특별시 중구",서울특별시 중구 난계로10길 12,서울특별시 중구 신당5동 85-781,생활방범,4,200,주택가 앞,30,2018-02,02-3396-4744,37.56212710,127.02210490,2019-05-28
"서울특별시 중구",서울특별시 중구 퇴계로 428-3,서울특별시 중구 신당5동 130-28,생활방범,5,200,롯데리아뒷편,30,2014-01,02-3396-4744,37.56536300,127.01928200,2019-05-28
"서울특별시 중구",서울특별시 중구 퇴계로 88가길 52,서울특별시 중구 신당5동 166-34,생활방범,4,200,서암빌라 건너,30,2014-01,02-3396-4744,37.56260900,127.02293900,2019-05-28
"서울특별시 중구",서울특별시 중구 퇴계로88길23,서울특별시 중구 신당동152-17,생활방범,5,200,밥벅고술벅고가자 앞,30,2015-12,02-3396-4744,37.56443500,127.02089500,2019-05-28
"서울특별시 중구",서울특별시 중구 퇴계로86길19,서울특별시 중구 신당동143-23,생활방범,5,200,새마을금고앞,30,2015-12,02-3396-4744,37.56462600,127.01963100,2019-05-28
"서울특별시 중구",서울특별시 중구 장충단로8길 14 (장충동1가),서울특별시 중구 장충동1가 34-6,생활방범,1,200,탑빌딩앞 장충동사무소옆,30,2014-11,02-3396-4744,37.56182686,127.00723171,2019-05-28
"서울특별시 중구",서울특별시 중구 장충단로6가길 21-7 (장충동1가),서울특별시 중구 장충동1가 35-43,생활방범,1,200,부광빌리지 앞,30,2016-12,02-3396-4744,37.56133358,127.00851381,2019-05-28
"서울특별시 중구",서울특별시 중구 장충단로6길 10 (장충동1가),서울특별시 중구 장충동1가 48-22,생활방범,1,200,동국부동산앞 삼거리,30,2016-12,02-3396-4744,37.56141438,127.00697958,2019-05-28
"서울특별시 중구",서울특별시 중구 장충단로6가길 32 (장충동1가),서울특별시 중구 장충동1가 49-8,생활방범,1,200,영화맨션,30,2017-09,02-3396-4744,37.56084669,127.00854868,2019-05-28
"서울특별시 중구",서울특별시 중구 장충단로4길 50 (장충동1가),서울특별시 중구 장충동1가 50-30,생활방범,1,200,각산빌라2차,30,2017-09,02-3396-4744,37.56047035,127.00820267,2019-05-28
"서울특별시 중구","서울특별시 중구 동호로20나길 30 (장충동1가, 상지리츠빌 장충동 카일룸)",서울특별시 중구 장충동1가 52-37,생활방범,1,200,사거리전봇대,30,2017-09,02-3396-4744,37.56029812,127.00720221,2019-05-28
"서울특별시 중구",서울특별시 중구 동호로30길 25 (장충동2가),서울특별시 중구 장충동2가 50-6,생활방범,3,200,장충단교회 삼거리,30,2018-10,02-3396-4744,37.56111459,127.00425446,2019-05-28
"서울특별시 중구",서울특별시 중구 퇴계로54길 39 (장충동2가),서울특별시 중구 장충동2가 112-33,생활방범,1,200,대한사 세탁소 앞,30,2017-09,02-3396-4744,37.56172906,127.00466484,2019-05-28
"서울특별시 중구",서울특별시 중구 동호로 303 (장충동2가),서울특별시 중구 장충동2가 174,생활방범,3,200,충무초등학교 외벽,30,2018-10,02-3396-4744,37.56145478,127.00233668,2019-05-28
"서울특별시 중구",서울특별시 중구 동호로 315 (장충동2가),서울특별시 중구 장충동2가 173-1,생활방범,3,200,충무초등학교 후문,30,2018-10,02-3396-4744,37.56243707,127.00241178,2019-05-28
"서울특별시 중구",서울특별시 중구 동호로28길 33 (장충동2가),서울특별시 중구 장충동2가 186-239,생활방범,1,200,신아고시텔 앞,30,2016-12,02-3396-4744,37.56065958,127.00367510,2019-05-28
"서울특별시 중구",서울특별시 중구 동호로24길 27 (장충동2가),서울특별시 중구 장충동2가 187-22,생활방범,1,200,수릿날 설렁탕앞,30,2016-12,02-3396-4744,37.56049200,127.00544200,2019-05-28
"서울특별시 중구",서울특별시 중구 동호로25길 23-5 (장충동2가),서울특별시 중구 장충동2가 193-78,생활방범,1,200,대광빌라,30,2014-11,02-3396-4744,37.55858224,127.00147301,2019-05-28
"서울특별시 중구",서울특별시 중구 동호로25가길 34 (장충동2가),서울특별시 중구 장충동2가 193-138,생활방범,1,200,도성빌라 앞,30,2015-12,02-3396-4744,37.55875022,127.00089097,2019-05-28
"서울특별시 중구",서울특별시 중구 동호로25길 49 (장충동2가),서울특별시 중구 장충동2가 193-170,생활방범,1,200,클레식리빙텔 삼거리,30,2015-12,02-3396-4744,37.55955607,127.00079441,2019-05-28
"서울특별시 중구",서울특별시 중구 동호로25가길 50 (장충동2가),서울특별시 중구 장충동2가 193-176,생활방범,2,200,믿음슈퍼앞 전봇대,30,2015-12,02-3396-4744,37.55908192,127.00041890,2019-05-28
"서울특별시 중구",서울특별시 중구 동호로25길 27 (장충동2가),서울특별시 중구 장충동2가 193-116,생활방범,2,200,CU 앞,30,2015-12,02-3396-4744,37.55896070,127.00142350,2019-05-28
"서울특별시 중구",서울특별시 중구 퇴계로50길 33-14 (묵정동),서울특별시 중구 묵정동 25-1,생활방범,1,200,신광교회앞,30,2015-12,02-3396-4744,37.56102954,127.00180829,2019-05-28
"서울특별시 중구",서울특별시 중구 퇴계로50길 43-5 (묵정동),서울특별시 중구 묵정동 25-16,생활방범,1,200,삼거리 가로등,30,2017-09,02-3396-4744,37.56070423,127.00133890,2019-05-28
"서울특별시 중구",서울특별시 중구 퇴계로46길 15-5 (묵정동),서울특별시 중구 묵정동 30-10,생활방범,4,200,송정빌딩 앞,30,2018-10,02-3396-4744,37.56163125,127.00021774,2019-05-28
"서울특별시 중구",서울특별시 중구 퇴계로52길 17 (쌍림동),서울특별시 중구 쌍림동 151-93,생활방범,4,200,주택가 사거리 위드미편의점옆,30,2018-10,02-3396-4744,37.56244770,127.00387895,2019-05-28
"서울특별시 중구",서울특별시 중구 퇴계로56길 12 (쌍림동),서울특별시 중구 쌍림동 235-2,생활방범,2,130,안전상사 가스저장소앞 사거리,30,2012-06,02-3396-4744,37.56329603,127.00568408,2019-05-28
"서울특별시 중구",서울특별시 중구 장충단로7길 10 (쌍림동),서울특별시 중구 쌍림동 243-5,생활방범,4,200,실용음악아카데미 사거리,30,2017-09,02-3396-4744,37.56233501,127.00600058,2019-05-28
"서울특별시 중구",서울특별시 중구 동호로25길 38-5,서울특별시 중구 장충동2가 191,생활방범,3,200,엠버세더호텔 뒤,30,2014-01,02-3396-4744,37.55985400,127.00221100,2019-05-28
"서울특별시 중구",서울특별시 중구 퇴계로50길13,서울특별시 중구 장충동2가173-7,어린이보호,5,200,충무초교앞,30,2015-12,02-3396-4744,37.56218500,127.00116100,2019-05-28
"서울특별시 중구",서울특별시 중구 장충단로8나길25,서울특별시 중구 장충동1가38-3,생활방범,4,200,호텔4513앞(주택가),30,2015-12,02-3396-4744,37.56277000,127.00945400,2019-05-28
"서울특별시 중구",서울특별시 중구 수표로 32 (저동2가),서울특별시 중구 저동2가 47-22,생활방범,1,200,포토저널 계단앞,30,2017-09,02-3396-4744,37.56392537,126.99017555,2019-05-28
"서울특별시 중구",서울특별시 중구 을지로11길 23 (수표동),서울특별시 중구 수표동 27-2,생활방범,3,200,청소년회관옆,30,2017-09,02-3396-4744,37.56722290,126.99083537,2019-05-28
"서울특별시 중구",서울특별시 중구 을지로11길 28,서울특별시 중구 입정동 263-4,생활방범,2,200,구두판매점 앞,30,2018-10,02-3396-4744,37.56763000,126.99090000,2019-05-28
"서울특별시 중구",서울특별시 중구 청계천로 108 (수표동),서울특별시 중구 수표동 47-1,생활방범,1,200,부영공구앞,30,2015-12,02-3396-4744,37.56793086,126.98949963,2019-05-28
"서울특별시 중구",서울특별시 중구 을지로33길 14,서울특별시 중구 주교동 253-2,생활방범,1,200,성지실업앞,30,2017-09,02-3396-4744,37.56719500,126.99990080,2019-05-28
"서울특별시 중구",서울특별시 중구 청계천로 154 (산림동),서울특별시 중구 산림동 243-5,생활방범,1,200,동일고무벨트건너 청계천변,30,2015-12,02-3396-4744,37.56838582,126.99459314,2019-05-28
"서울특별시 중구",서울특별시 중구 을지로15길 21 (입정동),서울특별시 중구 입정동 105,생활방범,1,200,청계호텔앞,30,2017-09,02-3396-4744,37.56748440,126.99345589,2019-05-28
"서울특별시 중구",서울특별시 중구 창경궁로5길 28 (산림동),서울특별시 중구 산림동 51,생활방범,2,200,광남철강 전봇대앞,30,2017-09,02-3396-4744,37.56699116,126.99645191,2019-05-28
"서울특별시 중구",서울특별시 중구 창경궁로5가길 39 (산림동),서울특별시 중구 산림동 82-3,생활방범,1,200,반석교회앞,30,2017-09,02-3396-4744,37.56796700,126.99647337,2019-05-28
"서울특별시 중구",서울특별시 중구 을지로19길 9 (산림동),서울특별시 중구 산림동 278,생활방범,1,200,남일전기앞,30,2017-09,02-3396-4744,37.56712723,126.99515373,2019-05-28
"서울특별시 중구",서울특별시 중구 을지로14길 8 (을지로3가),서울특별시 중구 을지로3가 315-6,생활방범,1,200,을지빌딩본관앞,30,2014-11,02-3396-4744,37.56580908,126.99200213,2019-05-28
"서울특별시 중구",서울특별시 중구 을지로27가길 18,서울특별시 중구 주교동 269,생활방범,1,200,영일상사 앞,30,2016-12,02-3396-4744,37.56780800,127.00015300,2019-05-28
"서울특별시 중구",서울특별시 중구 충무로2길 39-1 (충무로4가),서울특별시 중구 충무로4가 28-4,생활방범,3,200,돌곱창집옆,30,2016-12,02-3396-4744,37.56232013,126.99532807,2019-05-28
"서울특별시 중구",서울특별시 중구 다산로36다길14,서울특별시 중구 신당동 54-14,생활방범,2,130,전주 옆,30,2012-06,02-3396-4744,37.56029000,127.01994300,2019-05-28
"서울특별시 중구",서울특별시 중구 을지로18길 21 (인현동1가),서울특별시 중구 인현동1가 39-1,생활방범,3,200,우리인쇄사앞,30,2017-09,02-3396-4744,37.56546253,126.99452877,2019-05-28
"서울특별시 중구",서울특별시 중구 을지로16길 5-25 (을지로3가),서울특별시 중구 인현동1가 46,생활방범,1,200,매일온천앞 골목,30,2017-09,02-3396-4744,37.56574105,126.99415326,2019-05-28
"서울특별시 중구",서울특별시 중구 마른내로4길 3 (인현동1가),서울특별시 중구 인현동1가 113,생활방범,1,200,한신엠보싱옆 전신주,30,2016-05,02-3396-4744,37.56392962,126.99391991,2019-05-28
"서울특별시 중구",서울특별시 중구 을지로40길 24,서울특별시 중구 광희동1가 49,생활방범,3,200,국제실크 옆,30,2018-10,02-3396-4744,37.56557005,127.00433350,2019-05-28
"서울특별시 중구",서울특별시 중구 마른내로6길 29 (인현동2가),서울특별시 중구 인현동2가 189-10,생활방범,3,200,영심이네 음식점앞,30,2016-12,02-3396-4744,37.56285521,126.99518859,2019-05-28
"서울특별시 중구",서울특별시 중구 을지로12길16,서울특별시 중구 을지로3가322-7,생활방범,4,200,신화지업앞,30,2015-12,02-3396-4744,37.56554700,126.99099100,2019-05-28
"서울특별시 중구",서울특별시 중구 수표로48-11,서울특별시 중구 을지로3가322-5,생활방범,3,200,시온정판인쇄소앞,30,2015-12,02-3396-4744,37.56558500,126.99052700,2019-05-28
"서울특별시 중구",서울특별시 중구 퇴계로62길 3-9,서울특별시 중구 광희동2가 271-2,생활방범,3,200,주택가 골목,30,2016-12,02-3396-4744,37.56387000,127.00801200,2019-05-28
"서울특별시 중구",서울특별시 중구 마른내로10길 16,서울특별시 중구 인현동2가 172-2,생활방범,3,200,구청 후문,30,2017-09,02-3396-4744,37.56357300,126.99720800,2019-05-28
"서울특별시 중구",서울특별시 중구 퇴계로49길 6,서울특별시 중구 충무로5가 8-16,생활방범,3,200,예성사 앞 사거리,30,2018-10,02-3396-4744,37.56310654,127.00052640,2019-05-28
"서울특별시 중구",서울특별시 중구 퇴계로45길 27,서울특별시 중구 예관동 70-21,생활방범,3,200,묵정어린이공원 지하주차장 출구 사거리,30,2018-10,02-3396-4744,37.56395000,126.99900000,2019-05-28
"서울특별시 중구",서울특별시 중구 동호로 194,서울특별시 중구 신당동 374-17,생활방범,3,200,약수역 1번출구,30,2016-12,02-3396-4744,37.55540000,127.01036900,2019-05-28
"서울특별시 중구",서울특별시 중구 동호로 11나길 64,서울특별시 중구 신당동 432-424,생활방범,3,200,우림빌라 앞 전신주,30,2016-12,02-3396-4744,37.55237900,127.00479800,2019-05-28
"서울특별시 중구",서울특별시 중구 동호로 12길 111,서울특별시 중구 신당동 386-23,생활방범,3,200,경원지업 맞은편 화단,30,2016-12,02-3396-4744,37.55994400,127.01251600,2019-05-28
"서울특별시 중구",서울특별시 중구 동호로 18길 22,서울특별시 중구 신당동 415-13,생활방범,3,200,다세대주택 앞 전신주,30,2016-12,02-3396-4744,37.55785500,127.00949600,2019-05-28
"서울특별시 중구",서울특별시 중구 다산로 11길 13,서울특별시 중구 신당동 361-13,생활방범,3,200,한국맞춤양복협회 앞 전신주,30,2016-12,02-3396-4744,37.55473200,127.00953100,2019-05-28
"서울특별시 중구",서울특별시 중구 동호로 17길 105,서울특별시 중구 신당동 432-376,생활방범,3,200,충현슈퍼 맞은편 화단,30,2016-12,02-3396-4744,37.55442400,127.00499500,2019-05-28
"서울특별시 중구",서울특별시 중구 동호로17길 261,서울특별시 중구 신당동 432-1695,생활방범,3,200,정맥프린스빌라 옆,30,2017-09,02-3396-4744,37.54922300,127.00600500,2019-05-28
"서울특별시 중구",서울특별시 중구 동호로17길 267-14,서울특별시 중구 신당동 432-1620,생활방범,4,200,주택 옆,30,2017-09,02-3396-4744,37.54981500,127.00588000,2019-05-28
"서울특별시 중구",서울특별시 중구  동호로11바길 35-2,서울특별시 중구 신당동 432-1014,생활방범,2,200,공원,30,2017-09,02-3396-4744,37.55005300,127.00576200,2019-05-28
"서울특별시 중구",서울특별시 중구 다산로5길 12,서울특별시 중구 신당동 432-724,생활방범,4,200,황금하이츠빌라 전신주 옆,30,2017-09,02-3396-4744,37.54981200,127.00684400,2019-05-28
"서울특별시 중구",서울특별시 중구 동호로11길 108-2,서울특별시 중구 신당동 432-1084,생활방범,4,200,일승공업사 옆,30,2017-09,02-3396-4744,37.55092900,127.00709200,2019-05-28
"서울특별시 중구",서울특별시 중구 청구로4길15-9,서울특별시 중구 신당동 287-17,생활방범,3,200,흥인초교 옆,30,2016-07,02-3396-4744,37.56054680,127.01497220,2019-05-28
"서울특별시 중구",서울특별시 중구 퇴계로 88다길 38,서울특별시 중구 신당동 62-33,생활방범,3,200,APPIA 빌딩 앞,30,2016-12,02-3396-4744,37.56168500,127.02039800,2019-05-28
"서울특별시 중구",서울특별시 중구 다산로42다길 59 옆,서울특별시 중구 신당동 281-23,생활방범,3,200,주택 앞 화단 위,30,2017-09,02-3396-4744,37.56176400,127.01788800,2019-05-28
"서울특별시 중구",서울특별시 중구 다산로 40길 17,서울특별시 중구 신당동 112-6,생활방범,3,200,긴난 음식점 모서리,30,2016-12,02-3396-4744,37.56381300,127.01714900,2019-05-28
"서울특별시 중구",서울특별시 중구 청구로17길 91,서울특별시 중구 신당동 377-142,생활방범,4,200,파란하늘수퍼 앞,30,2017-09,02-3396-4744,37.55729600,127.01123000,2019-05-28
"서울특별시 중구",서울특별시 중구 동호로17나길 19,서울특별시 중구 신당동 432-2347,생활방범,3,200,장원중학교 옆 나무계단 상단 입구,30,2018-10,02-3396-4744,37.55398000,127.00590000,2019-05-28
"서울특별시 중구",서울특별시 중구 동호로 10길 30,서울특별시 중구 신당동 842,어린이보호,4,200,약수유치원 앞,30,2016-12,02-3396-4744,37.55458600,127.01439000,2019-05-28
"서울특별시 중구",서울특별시 중구 동호로5길 193,서울특별시 중구 신당동 844-10,어린이보호,4,200,남산숲 어린이집 앞 전신주,30,2016-12,02-3396-4744,37.54804200,127.01001700,2019-05-28
"서울특별시 중구",서울특별시 중구 다산로36길 79,서울특별시 중구 신당동 44-27,어린이보호,4,200,이편한부동산 삼거리 인도,30,2016-12,02-3396-4744,37.56064800,127.01869000,2019-05-28
"서울특별시 중구",서울특별시 중구 다산로 24길 81,서울특별시 중구 신당동 333-177,어린이보호,4,200,청구 어린이집 앞,30,2016-12,02-3396-4744,37.55733400,127.01657700,2019-05-28
"서울특별시 중구",서울특별시 중구 다산로39가길 16-1,서울특별시 중구 신당동 304-217,생활방범,4,200,전신주 옆,30,2017-09,02-3396-4744,37.56395800,127.01298000,2019-05-28
"서울특별시 중구",서울특별시 중구 다산로33라길 30-13,서울특별시 중구 신당동 304-166,생활방범,1,200,보안등 옆,30,2017-11,02-3396-4744,37.56428900,127.01239900,2019-05-28
"서울특별시 중구",서울특별시 중구 마장로1가길 17,서울특별시 중구 신당동 213-51,생활방범,3,200,엘리시움 뒤편 삼거리,30,2018-10,02-3396-4744,37.56857300,127.01302340,2019-05-28
"서울특별시 중구",서울특별시 중구 퇴계로71길 38,서울특별시 중구 신당동 251-131,생활방범,2,200,느티나무집 앞 삼거리,30,2018-10,02-3396-4744,37.56651688,127.01280980,2019-05-28
"서울특별시 중구",서울특별시 중구 다산로33길 58,서울특별시 중구 신당동 304-141,생활방범,4,200,주택가 삼거리,30,2018-10,02-3396-4744,37.56348038,127.01201630,2019-05-28
"서울특별시 중구",서울특별시 중구 다산로 114-8,서울특별시 중구 신당동 368-58,생활방범,3,200,좋은약국 앞 전신주,30,2016-12,02-3396-4744,37.55394500,127.01066000,2019-05-28
"서울특별시 중구",서울특별시 중구 동호로8가길 41 뒷편,서울특별시 중구 신당동 346-453,생활방범,2,200,약수하이츠 연결계단 보안등,30,2017-09,02-3396-4744,37.55418500,127.01405800,2019-05-28
"서울특별시 중구",서울특별시 중구 동호로8라길 20 앞,서울특별시 중구 신당동 346-566,생활방범,3,200,약수빌라 앞,30,2017-09,02-3396-4744,37.55336600,127.01518700,2019-05-28
"서울특별시 중구",서울특별시 중구 동호로8나길 41,서울특별시 중구 신당동 309-76,생활방범,4,200,지선빌라 옆,30,2017-09,02-3396-4744,37.55216800,127.01391600,2019-05-28
"서울특별시 중구",서울특별시 중구 동호로7길 47-14,서울특별시 중구 신당동 372-445,생활방범,3,200,주택 옆 보안등,30,2017-09,02-3396-4744,37.55167600,127.01153600,2019-05-28
"서울특별시 중구",서울특별시 중구 을지로 27길 40,서울특별시 중구 주교동 67,생활방범,3,200,한성문화사 옆,30,2016-12,02-3396-4744,37.56871100,126.99904500,2019-05-28
"서울특별시 중구",서울특별시 중구 창경궁로 5길 6,서울특별시 중구 산림동 16,생활방범,3,200,대원미싱 앞 전신주,30,2016-12,02-3396-4744,37.56723600,126.99783200,2019-05-28
"서울특별시 중구",서울특별시 중구 퇴계로27길 35,서울특별시 중구 초동 53-2,생활방범,4,200,건물 앞 가로등,30,2017-09,02-3396-4744,37.56341100,126.99179600,2019-05-28
"서울특별시 중구",서울특별시 중구 을지로17길 12,서울특별시 중구 산림동 289,생활방범,3,200,환경미화원 휴게실 앞,30,2018-10,02-3396-4744,37.56710052,126.99459080,2019-05-28
"서울특별시 중구",서울특별시 중구 동호로25길 37-5,서울특별시 중구 장충동2가 193-148,생활방범,2,200,주택가 골목 화단 위,30,2017-09,02-3396-4744,37.55923100,127.00110800,2019-05-28
"서울특별시 중구",서울특별시 중구 장충단로8나길 13,서울특별시 중구 장충동1가 38-7,생활방범,3,200,주택가 전주 옆,30,2018-10,02-3396-4744,37.56287384,127.00867460,2019-05-28
"서울특별시 중구",서울특별시 중구 장충단로8나길 11-26,서울특별시 중구 광희동2가 217-5,생활방범,2,200,주택가 담장 옆,30,2018-10,02-3396-4744,37.56309509,127.00875850,2019-05-28
"서울특별시 중구",서울특별시 중구 다산로 28나길 19,서울특별시 중구 신당동 321-9,생활방범,3,200,다세대주택 앞 전신주,30,2016-12,02-3396-4744,37.55893200,127.01501400,2019-05-28
"서울특별시 중구",서울특별시 중구 다산로24가길 23,서울특별시 중구 신당동 333-260,생활방범,4,200,문화마당 옆,30,2017-09,02-3396-4744,37.55648100,127.01619000,2019-05-28
"서울특별시 중구",서울특별시 중구 다산로 138 앞,서울특별시 중구 신당동 369-76,생활방범,3,200,버스정류장 옆 인도,30,2017-09,02-3396-4744,37.55614700,127.01148000,2019-05-28
"서울특별시 중구",서울특별시 중구 다산로20길 65,서울특별시 중구 신당동 333-500,생활방범,2,200,건강계단 위,30,2018-05,02-3396-4744,37.55609700,127.01556600,2019-05-28
"서울특별시 중구",서울특별시 중구 청구로3다길 14,서울특별시 중구 신당동 300-190,생활방범,3,200,주택가 의류수거함 옆,30,2018-10,02-3396-4744,37.55763626,127.01566310,2019-05-28
"서울특별시 중구",서울특별시 중구 퇴계로 32길 21,서울특별시 중구 필동2가 84-92,생활방범,3,200,시루국밥 앞 전신주,30,2016-12,02-3396-4744,37.56002500,126.99251700,2019-05-28
"서울특별시 중구",서울특별시 중구 퇴계로 36가길 38,서울특별시 중구 필동2가 104-1,어린이보호,4,200,삼경하이빌 맞은편,30,2017-09,02-3396-4744,37.55864700,126.99542600,2019-05-28
"서울특별시 중구",서울특별시 중구 서애로1길 34,서울특별시 중구 묵정동 11-67,생활방범,3,200,묵정아파트 앞 인도,30,2017-09,02-3396-4744,37.56085900,126.99994500,2019-05-28
"서울특별시 중구",서울특별시 중구 필동로8길 36,서울특별시 중구 예장동 1-136,생활방범,2,200,주택가 삼거리,30,2018-10,02-3396-4744,37.55533218,126.99459080,2019-05-28
"서울특별시 중구",서울특별시 중구 필동로5길 18,서울특별시 중구 장충동2가 산14-48,생활방범,2,200,주택가 화단 옆,30,2018-10,02-3396-4744,37.55626000,126.99650000,2019-05-28
"서울특별시 중구",서울특별시 중구 필동로3길 17-2,서울특별시 중구 장충동2가 산14-48,생활방범,3,200,계단 통신주 옆,30,2018-10,02-3396-4744,37.55714035,126.99645230,2019-05-28
"서울특별시 중구",서울특별시 중구 필동로 35-13,서울특별시 중구 필동3가 49-1,생활방범,2,200,인쇄소 맞은편,30,2018-10,02-3396-4744,37.55791473,126.99648280,2019-05-28
"서울특별시 중구",서울특별시 중구 서애로 12-6,서울특별시 중구 충무로5가 84-1,생활방범,2,200,동국 할머니네 앞,30,2018-10,02-3396-4744,37.56150436,126.99793240,2019-05-28
"서울특별시 중구",서울특별시 중구 다산로 48길 33,서울특별시 중구 황학동 755,어린이보호,4,200,단우물 어린이집 코너,30,2016-12,02-3396-4744,37.56734100,127.01828300,2019-05-28
"서울특별시 중구",서울특별시 중구 난계로17길 19-5 옆,서울특별시 중구 황학동 1568,생활방범,3,200,주택가 골목 입구,30,2017-09,02-3396-4744,37.56912700,127.02225900,2019-05-28
"서울특별시 중구",서울특별시 중구 난계로15길 7,서울특별시 중구 황학동 1444,생활방범,3,200,세림상사 앞,30,2018-10,02-3396-4744,37.56871414,127.02297970,2019-05-28
"서울특별시 중구",서울특별시 중구 통일로 30 (봉래동1가),서울특별시 중구 봉래1가 126-2,교통단속,2,200,오일뱅크,30,2019-04,02-3396-4744,37.55831060,126.97187500,2019-05-28
"서울특별시 중구",서울특별시 중구 중림로 15,서울특별시 중구 중림동 182,교통단속,2,200,삼성빌리지 102동 맞은편,30,2019-04,02-3396-4744,37.55893700,126.96534700,2019-05-28
"서울특별시 중구",서울특별시 중구 퇴계로 131 (충무로2가),서울특별시 중구 충무로2가 64-5,교통단속,2,200,국민은행 명동역지점,30,2016-12,02-3396-4744,37.56109500,126.98661000,2019-05-28
"서울특별시 중구",서울특별시 중구 퇴계로 132 (남산동3가),서울특별시 중구 남산동3가 13-31,교통단속,2,200,남산초교,30,2016-12,02-3396-4744,37.56080400,126.98639800,2019-05-28
"서울특별시 중구",서울특별시 중구 마른내로 8 (저동2가),서울특별시 중구 저동2가 88-13,교통단속,2,200,백병원 건너편,30,2019-04,02-3396-4744,37.56457200,126.98885500,2019-05-28
"서울특별시 중구",서울특별시 중구 청계천로 106 (수표동),서울특별시 중구 수표동 62-4,교통단속,2,200,수표교 보쉬앞,30,2019-04,02-3396-4744,37.56792650,126.98938720,2019-05-28
"서울특별시 중구",서울특별시 중구 수표로 74 (수표동),서울특별시 중구 수표동 11-8,교통단속,2,200,수표동 외환은행,30,2016-12,02-3396-4744,37.56724790,126.98952100,2019-05-28
"서울특별시 중구",서울특별시 중구 수표로 54-1 (을지로3가),서울특별시 중구 을지로3가 348-4,교통단속,2,200,열린애드,30,2015-12,02-3396-4744,37.56583980,126.98984940,2019-05-28
"서울특별시 중구",서울특별시 중구 마른내로 21 (저동2가),서울특별시 중구 저동2가 17-1,교통단속,2,200,쌍용 B/D,30,2015-12,02-3396-4744,37.56482270,126.99021860,2019-05-28
"서울특별시 중구",서울특별시 중구 통일로 92,서울특별시 중구 순화동 1-170,교통단속,2,200,덕수궁롯데캐슬 주변,30,2015-12,02-3396-4744,37.56396400,126.96955700,2019-05-28
"서울특별시 중구",서울특별시 중구 마른내로 38 (초동),서울특별시 중구 초동 64-11,교통단속,2,200,초동 공영주차장,30,2016-12,02-3396-4744,37.56434700,126.99176820,2019-05-28
"서울특별시 중구",서울특별시 중구 충무로11길 7 (을지로3가),서울특별시 중구 을지로3가 108,교통단속,2,200,을지로3가역 4번출구,30,2015-12,02-3396-4744,37.56740300,126.99234500,2019-05-28
"서울특별시 중구",서울특별시 중구 마른내로 75-1 (인현동2가),서울특별시 중구 인현동2가 134-11,교통단속,2,200,인현동2가 기업은행,30,2016-12,02-3396-4744,37.56416910,126.99571040,2019-05-28
"서울특별시 중구",서울특별시 중구 을지로 163 (을지로4가),서울특별시 중구 을지로4가 19-4,교통단속,2,200,대림상가 영일조명,30,2016-12,02-3396-4744,37.56671300,126.99702500,2019-05-28
"서울특별시 중구",서울특별시 중구 창경궁로 62 (주교동),서울특별시 중구 주교동 175-1,교통단속,2,200,미싱상가 배오개길,30,2015-12,02-3396-4744,37.56796830,126.99813040,2019-05-28
"서울특별시 중구",서울특별시 중구 창경궁로 36-1 (예관동),서울특별시 중구 예관동 21-5,교통단속,2,200,배오개길 가구상가,30,2016-12,02-3396-4744,37.56543650,126.99837900,2019-05-28
"서울특별시 중구",서울특별시 중구 마른내로 101-1 (오장동),서울특별시 중구 오장동 69-50,교통단속,2,200,오장동 함흥냉면,30,2015-12,02-3396-4744,37.56449500,126.99953000,2019-05-28
"서울특별시 중구",서울특별시 중구 마른내로 121 (오장동),서울특별시 중구 오장동 148-17,교통단속,2,200,바다회집,30,2015-12,02-3396-4744,37.56459100,127.00113600,2019-05-28
"서울특별시 중구",서울특별시 중구 마른내로 133 (쌍림동),서울특별시 중구 광희동1가 281-2,교통단속,2,200,현대자동차서비스센터,30,2015-12,02-3396-4744,37.56473250,127.00304370,2019-05-28
"서울특별시 중구",서울특별시 중구 필동로 24,서울특별시 중구 필동3가 34,교통단속,3,200,필동삼거리 녹원사 앞,30,2016-12,02-3396-4744,37.55939900,126.99609900,2019-05-28
"서울특별시 중구",서울특별시 중구 퇴계로 307 (광희동1가),서울특별시 중구 광희동1가 216,교통단속,2,200,광희빌딩,30,2015-12,02-3396-4744,37.56452300,127.00582000,2019-05-28
"서울특별시 중구",서울특별시 중구 다산로 236-1,서울특별시 중구 신당동 101-8,교통단속,2,200,제일공인중개사 앞,30,2016-12,02-3396-4744,37.56402400,127.01603100,2019-05-28
"서울특별시 중구",서울특별시 중구 퇴계로 345,서울특별시 중구 을지로7가 15,교통단속,2,200,토요코인호텔 앞,30,2016-12,02-3396-4744,37.56471000,127.00994700,2019-05-28
"서울특별시 중구",서울특별시 중구 퇴계로 386 (신당동),서울특별시 중구 신당동 247-16,교통단속,2,200,충무아트홀 건너편,30,2015-12,02-3396-4744,37.56505610,127.01472500,2019-05-28
"서울특별시 중구",서울특별시 중구 을지로 6 (을지로1가),서울특별시 중구 소공동 91-8,교통단속,2,200,서울 시청광장앞,30,2016-12,02-3396-4744,37.56522120,126.97882800,2019-05-28
"서울특별시 중구",서울특별시 중구 다산로 183 (신당동),서울특별시 중구 신당동 309-35,교통단속,2,200,우리은행 청구역지점,30,2016-12,02-3396-4744,37.55957690,127.01323640,2019-05-28
"서울특별시 중구",서울특별시 중구 청파로 447 (중림동),서울특별시 중구 중림동 149-21,교통단속,2,200,왕궁쌀상회앞 교통섬,30,2019-04,02-3396-4744,37.55937000,126.96877000,2019-05-28
"서울특별시 중구",서울특별시 중구 서소문로 115 (서소문동),서울특별시 중구 서소문동 47-2,교통단속,2,200,소공동 서소문로,30,2016-12,02-3396-4744,37.56313240,126.97382080,2019-05-28
"서울특별시 중구",서울특별시 중구 난계로 187 (황학동),서울특별시 중구 황학동 1103,교통단속,2,200,난계로 황학사거리,30,2016-12,02-3396-4744,37.56819500,127.02338090,2019-05-28
"서울특별시 중구",서울특별시 중구 을지로9길 34,서울특별시 중구 수표동 56-17,교통단속,2,200,KEB하나은행 뒷편,30,2016-12,02-3396-4744,37.56869800,127.00232800,2019-05-28
"서울특별시 중구",서울특별시 중구 충무로 22 (인현동1가),서울특별시 중구 인현동1가 142-1,교통단속,2,200,필동 돈화문로,30,2016-12,02-3396-4744,37.56308400,126.99312300,2019-05-28
"서울특별시 중구",서울특별시 중구 을지로 282 (을지로7가),서울특별시 중구 을지로7가 57,교통단속,2,200,광희동 을지로,30,2016-12,02-3396-4744,37.56546200,127.00919850,2019-05-28
"서울특별시 중구",서울특별시 중구 을지로 189 (을지로4가),서울특별시 중구 을지로4가 122-2,교통단속,2,200,을지로4가역 6번출구,30,2016-12,02-3396-4744,37.56681200,126.99900000,2019-05-28
"서울특별시 중구",서울특별시 중구 동호로 351 (을지로5가),서울특별시 중구 을지로5가 274-5,교통단속,2,200,우리은행 중부지점,30,2016-12,02-3396-4744,37.56577010,127.00216200,2019-05-28
"서울특별시 중구",서울특별시 중구 동호로 372 (방산동),서울특별시 중구 방산동 130-3,교통단속,2,200,"미공병부대, 영신타올앞",30,2016-12,02-3396-4744,37.5676213,127.0023926,2019-05-28
"서울특별시 중구",서울특별시 중구 동호로35길 26 (을지로5가),서울특별시 중구 을지로5가 270-10,교통단속,2,200,"중부시장, 수도목재상사",30,2016-12,02-3396-4744,37.56667810,127.00095300,2019-05-28
"서울특별시 중구",서울특별시 중구 퇴계로 120 (남산동1가),서울특별시 중구 남산동1가 1-2,교통단속,2,200,기업은행 명동지점,30,2016-12,02-3396-4744,37.56067690,126.98500750,2019-05-28
"서울특별시 중구",서울특별시 중구 을지로 251 (을지로6가),서울특별시 중구 을지로6가18-131,교통단속,2,200,국립의료원 앞,30,2015-12,02-3396-4744,37.56638000,127.00635000,2019-05-28
"서울특별시 중구",서울특별시 중구 마장로 11,서울특별시 중구 신당동 775,교통단속,2,200,신한은행 동대문지점 앞,30,2015-12,02-3396-4744,37.56825700,127.01121700,2019-05-28
"서울특별시 중구",서울특별시 중구 마장로1길 21 (신당동),서울특별시 중구 중구 신당1동 777,교통단속,2,200,광희시장 앞,30,2015-12,02-3396-4744,37.56854800,127.01219000,2019-05-28
"서울특별시 중구",서울특별시 중구 다산로 289 (신당동),서울특별시 중구 신당동 193-29,교통단속,2,200,기동대 1,30,2015-12,02-3396-4744,37.56809600,127.01494950,2019-05-28
"서울특별시 중구",서울특별시 중구 마장로 34 (신당동),서울특별시 중구 신당동 204-1,교통단속,2,200,기동대 2,30,2015-12,02-3396-4744,37.56791580,127.01358180,2019-05-28
"서울특별시 중구",서울특별시 중구 소공로 46 (회현동2가),서울특별시 중구 회현동2가 18-3,교통단속,2,200,남산쌍용플레티넘,30,2015-12,02-3396-4744,37.55911140,126.98371060,2019-05-28
"서울특별시 중구",서울특별시 중구 소파로 101 (남산동2가),서울특별시 중구 예장동 8-178,교통단속,2,200,남산돈까스,30,2015-12,02-3396-4744,37.55692400,126.98609500,2019-05-28
"서울특별시 중구",서울특별시 중구 통일로 42 (순화동),서울특별시 중구 순화동 207-1,교통단속,2,200,염천교,30,2015-12,02-3396-4744,37.55949100,126.97148600,2019-05-28
"서울특별시 중구",서울특별시 중구 난계로 209-1,서울특별시 중구 황학동 2154,교통단속,4,200,롯데캐슬 주차장 입구,30,2016-12,02-3396-4744,37.57045700,127.02332400,2019-05-28
"서울특별시 중구",서울특별시 중구 퇴계로50길 13 (장충동2가),서울특별시 중구 장충동2가 173-7,교통단속,2,200,충무초교,30,2016-12,02-3396-4744,37.56169500,127.00114200,2019-05-28
"서울특별시 중구",서울특별시 중구  다산로 261,서울특별시 중구 흥인동 106,교통단속,2,200,리마크빌 및 두산아파트 사이 건너편,30,2016-12,02-3396-4744,37.56643900,127.01602600,2019-05-28
"서울특별시 중구",서울특별시 중구 청구로 86,서울특별시 중구 신당동 304-411,교통단속,2,200,파리바게트 청구장충점,30,2016-12,02-3396-4744,37.56057500,127.01291300,2019-05-28
"서울특별시 중구",서울특별시 중구 퇴계로173,서울특별시 중구 충무로3가60-1,교통단속,5,200,남산스퀘어앞,30,2016-12,02-3396-4744,37.56195400,126.99054400,2019-05-28
"서울특별시 중구",서울특별시 중구 명동길 53 (명동),서울특별시 중구 명동1가 5-4,교통단속,2,200,명동 ABC마트 앞,30,2016-12,02-3396-4744,37.56387580,126.98521300,2019-05-28
"서울특별시 중구",서울특별시 중구 을지로39길 40 (을지로6가),서울특별시 중구 을지로6가 18-14,교통단속,2,200,구민회관 앞,30,2016-12,02-3396-4744,37.56838100,127.00544800,2019-05-28
"서울특별시 중구",서울특별시 중구 청파로 464 (중림동),서울특별시 중구 중림동 355,교통단속,2,200,중림동 브라운스톤 앞,30,2016-12,02-3396-4744,37.56100320,126.96838400,2019-05-28
"서울특별시 중구",서울특별시 중구 난계로17길 65 (황학동),서울특별시 중구 황학동 1835,교통단속,2,200,"황학 영도로, 대동벽지",30,2016-12,02-3396-4744,37.56969600,127.01964500,2019-05-28
"서울특별시 중구",서울특별시 중구 소공로 106 (소공동),서울특별시 중구 소공동 87-1,교통단속,2,200,소공동 조선호텔 앞,30,2016-12,02-3396-4744,37.56406200,126.98072000,2019-05-28
"서울특별시 중구",서울특별시 중구 을지로35길 25 (주교동),서울특별시 중구 주교동 315-4,교통단속,2,200,방산시장 안,30,2016-12,02-3396-4744,37.56791000,127.00099400,2019-05-28
"서울특별시 중구",서울특별시 중구 청계천로 370 (황학동),서울특별시 중구 황학동 2545-2,교통단속,2,200,롯데캐슬 영도교앞,30,2016-12,02-3396-4744,37.57077100,127.01901200,2019-05-28
"서울특별시 중구",서울특별시 중구 다산로48길 27,서울특별시 중구 흥인동 10,교통단속,3,200,사거리 전신주 옆 인도,30,2016-12,02-3396-4744,37.56721000,127.01788300,2019-05-28
"서울특별시 중구",서울특별시 중구 다산로 289 (흥인동),서울특별시 중구 중구 흥인동 159-4,교통단속,3,200,디오트 앞,30,2016-12,02-3396-4744,37.56886830,127.01576800,2019-05-28
"서울특별시 중구",서울특별시 중구 을지로 66 (을지로2가),서울특별시 중구 을지로2가 181-3,교통단속,2,200,명동 명례방길,30,2016-12,02-3396-4744,37.56522970,126.98448200,2019-05-28
"서울특별시 중구",서울특별시 중구 퇴계로75길 15 (흥인동),서울특별시 중구 흥인동 117-7,교통단속,2,200,충무아트홀 주차장입구,30,2016-12,02-3396-4744,37.56615550,127.01569010,2019-05-28
"서울특별시 중구",서울특별시 중구 퇴계로83길10-4,서울특별시 중구 황학동 737,교통단속,5,200,황학식당 형제종합주방,30,2015-12,02-3396-4744,37.56605300,127.01861600,2019-05-28
"서울특별시 중구",서울특별시 중구 을지로 238 (을지로6가),서울특별시 중구 을지로6가 58-5,교통단속,4,200,훈련원공원 건너편,30,2016-12,02-3396-4744,37.56649500,127.00455500,2019-05-28
"서울특별시 중구",서울특별시 중구 통일로4길 16,서울특별시 중구 순화동 1-5,교통단속,2,200,에이스타워앞 공원삼거리,30,2016-12,02-3396-4744,37.56409300,126.96874500,2019-05-28
"서울특별시 중구",서울특별시 중구 동호로 229,서울특별시 중구 장충동2가 200-71,교통단속,4,200,성곽길 입구,30,2015-12,02-3396-4744,37.55796600,127.00817100,2019-05-28
"서울특별시 중구",서울특별시 중구 칠패로 27 (순화동),서울특별시 중구 순화동 151-7,교통단속,2,200,라마다호텔앞,30,2019-04,02-3396-4744,37.56032060,126.97232910,2019-05-28
"서울특별시 중구",서울특별시 중구 다산로155,서울특별시 중구 신당동 370-52,교통단속,2,200,호박식당 건너편,30,2016-12,02-3396-4744,37.55747900,127.01204800,2019-05-28
"서울특별시 중구",서울특별시 중구 남대문로 81 (을지로1가),서울특별시 중구 을지로1가 178-4,교통단속,2,200,롯데호텔앞,30,2016-12,02-3396-4744,37.56586400,126.98099140,2019-05-28
"서울특별시 중구",서울특별시 중구 소공로 29(회현소방서 건너),서울특별시 중구 회현동2가 89-2,교통단속,3,200,회현소방서 맞은편,30,2014-01,02-3396-4744,37.55810900,126.98287200,2019-05-28
"서울특별시 중구",서울특별시 중구 청구로 65-1(청구E편한세상아파트 앞),서울특별시 중구 동화동 852,교통단속,3,200,청구E편한세상아파트 앞,30,2014-01,02-3396-4744,37.55974300,127.01488600,2019-05-28
"서울특별시 중구",서울특별시 중구 삼일대로 80(성모교차로),서울특별시 중구 명동2가 1-19,교통단속,3,200,성모교차로,30,2014-01,02-3396-4744,37.56429800,126.98758600,2019-05-28
"서울특별시 중구",서울특별시 중구 퇴계로 72(회현동 SK 리더스뷰),서울특별시 중구 회현동1가 206,교통단속,3,200,회현동 SK 리더스뷰,30,2014-01,02-3396-4744,37.55897000,126.98121800,2019-05-28
"서울특별시 중구",서울특별시 중구 충무로 9길 11 앞(을지로동 주민센터 옆),서울특별시 중구 을지로3가 65-22,교통단속,3,200,을지로동 주민센터 옆,30,2014-01,02-3396-4744,37.56681700,126.99198600,2019-05-28
"서울특별시 중구",서울특별시 중구 퇴계로 22길 17(남산초교 정문 주변),서울특별시 중구 남산동2가 2,교통단속,3,200,남산초교 정문 주변,30,2014-01,02-3396-4744,37.56037200,126.98647600,2019-05-28
"서울특별시 중구",서울특별시 중구 장충단로 13길 20(동대문 케레스타),서울특별시 중구 을지로6가 17-2,교통단속,3,200,동대문 케레스타,30,2014-01,02-3396-4744,37.56915600,127.00724100,2019-05-28
"서울특별시 중구",서울특별시 중구 세종대로11길 26 앞(삼성본관빌딩 주변),서울특별시 중구 서소문동 120-35,교통단속,3,200,삼성본관빌딩 주변,30,2014-01,02-3396-4744,37.56218000,126.97476900,2019-05-28
"서울특별시 중구",서울특별시 중구 필동로 6-1(행복예식장 주차장길),서울특별시 중구 필동2가 20-3,교통단속,3,200,행복예식장 주차장길,30,2014-01,02-3396-4744,37.56082000,126.99598000,2019-05-28
"서울특별시 중구",서울특별시 중구 동호로 7길 26(약수시장 주변),서울특별시 중구 약수동 366-74,교통단속,3,200,약수시장 주변,30,2014-01,02-3396-4744,37.55265800,127.01068600,2019-05-28
"서울특별시 중구",서울특별시 중구 을지로5길19,서울특별시 중구 명동66-4,교통단속,5,200,하나은행 주차장입구,30,2014-11,02-3396-4744,37.56671620,126.98430150,2019-05-28
"서울특별시 중구",서울특별시 중구 동호로 191,서울특별시 중구 다산동 417-6,교통단속,4,200,외환은행 앞 이정표,30,2014-11,02-3396-4744,37.55511300,127.01023000,2019-05-28
"서울특별시 중구",서울특별시 중구 동호로 218,서울특별시 중구 다산동 361-4,교통단속,4,200,대현빌딩 앞,30,2014-11,02-3396-4744,37.55729520,127.00922620,2019-05-28
"서울특별시 중구",서울특별시 중구 청파로 464,서울특별시 중구 중림동 355,교통단속,3,200,종로학원본원 옆,30,2014-11,02-3396-4744,37.56026810,126.96825900,2019-05-28
"서울특별시 중구",서울특별시 중구 다산로 36길 4,서울특별시 중구 동화동 282-6,교통단속,5,200,새마을금고 맞은편,30,2014-11,02-3396-4744,37.56172250,127.01728160,2019-05-28
"서울특별시 중구",서울특별시 중구 동호로10길30,서울특별시 중구 신당동 842,교통단속,3,200,약수하이츠아파트,30,2015-12,02-3396-4744,37.55470800,127.01202000,2019-05-28
"서울특별시 중구",서울특별시 중구 동호로163,서울특별시 중구 신당동 372-31,교통단속,4,200,약수역5번출구 버스정류장,30,2015-12,02-3396-4744,37.55299600,127.01197900,2019-05-28
"서울특별시 중구",서울특별시 중구 소공로7길2,서울특별시 중구 회현동2가 88-3,교통단속,4,200,롯데캐슬주차장입구,30,2015-12,02-3396-4744,37.55895700,126.98245900,2019-05-28
"서울특별시 중구",서울특별시 중구 동호로11길40,서울특별시 중구 신당동 363-1,교통단속,3,200,대풍약국앞,30,2015-12,02-3396-4744,37.55348300,127.00907700,2019-05-28
"서울특별시 중구",서울특별시 중구 충무로2,서울특별시 중구 필동1가 51-5,교통단속,4,200,매일경제신문사빌딩,30,2015-12,02-3396-4744,37.56123800,126.99306400,2019-05-28
"서울특별시 중구",서울특별시 중구 남대문로1길42,서울특별시 중구 북창동 18-9,교통단속,4,200,낙지센터앞,30,2015-12,02-3396-4744,37.56295200,126.97734400,2019-05-28
